zip,city,state,metro,county,zip_lat,zip_lon,zhvi_latest,zori_latest,zhvi_yoy_pct,gross_yield_pct,cap_rate_pct,cash_on_cash_pct,cash_flow_monthly,total_expense_monthly,down_payment,tj_miles,nearest_tj_city,nearest_tj_state,tj_within_2mi,tj_within_5mi,tj_within_10mi,zhvi_date,zori_date
01002,Amherst,MA,"Springfield, MA",Hampshire County,42.377212,-72.464795,527465,2808,0.23,6.39,3.06,-9.39,-1156,3964,131866,4.52,Hadley,MA,FALSE,TRUE,TRUE,2026-03-31,2026-03-31
01007,Belchertown,MA,"Springfield, MA",Hampshire County,42.283935,-72.400409,467794,2412,1.59,6.19,2.88,-12.61,-1376,3789,116948,9.16,Hadley,MA,FALSE,FALSE,TRUE,2026-03-31,2026-03-31
01013,Chicopee,MA,"Springfield, MA",Hampden County,42.142009,-72.595496,308965,1699,1.67,6.6,3.24,-23.11,-1666,3365,77241,15.09,Hadley,MA,FALSE,FALSE,FALSE,2026-03-31,2026-03-31
01020,Chicopee,MA,"Springfield, MA",Hampden County,42.172611,-72.56192,320663,1954,2.1,7.31,3.86,-19.62,-1468,3423,80166,12.81,Hadley,MA,FALSE,FALSE,FALSE,2026-03-31,2026-03-31
01040,Holyoke,MA,"Springfield, MA",Hampden County,42.211658,-72.642448,323014,1666,2.82,6.19,2.89,-22.87,-1724,3390,80754,11.16,Hadley,MA,FALSE,FALSE,FALSE,2026-03-31,2026-03-31
01060,Northampton,MA,"Springfield, MA",Hampshire County,42.321251,-72.630395,498154,2351,3.62,5.66,2.43,-12.85,-1493,3844,124539,4.85,Hadley,MA,FALSE,TRUE,TRUE,2026-03-31,2026-03-31
01069,Palmer,MA,"Springfield, MA",Hampden County,42.188862,-72.30648,331849,1800,3.53,6.51,3.16,-21,-1626,3426,82962,17.04,Hadley,MA,FALSE,FALSE,FALSE,2026-03-31,2026-03-31
01075,South Hadley,MA,"Springfield, MA",Hampshire County,42.256532,-72.580248,377373,1767,-0.93,5.62,2.39,-19.87,-1750,3516,94343,7.17,Hadley,MA,FALSE,FALSE,TRUE,2026-03-31,2026-03-31
01085,Westfield,MA,"Springfield, MA",Hampden County,42.153503,-72.771602,380481,1943,3.25,6.13,2.83,-18.05,-1603,3546,95120,18.12,Hadley,MA,FALSE,FALSE,FALSE,2026-03-31,2026-03-31
01089,West Springfield,MA,"Springfield, MA",Hampden County,42.125451,-72.649734,354726,1495,3.94,5.06,1.9,-23.42,-1939,3434,88681,16.85,Hadley,MA,FALSE,FALSE,FALSE,2026-03-31,2026-03-31
01103,Springfield,MA,"Springfield, MA",Hampden County,42.104418,-72.59008,135198,1635,-0.69,14.52,10.13,-43.09,-1359,2995,33800,17.63,Hadley,MA,FALSE,FALSE,FALSE,2026-03-31,2026-03-31
01108,Springfield,MA,"Springfield, MA",Hampden County,42.082947,-72.55951,294323,1723,3.34,7.03,3.61,-23.51,-1615,3338,73581,19,Hadley,MA,FALSE,FALSE,FALSE,2026-03-31,2026-03-31
01109,Springfield,MA,"Springfield, MA",Hampden County,42.119674,-72.549726,271173,1775,4.74,7.85,4.33,-24.04,-1521,3296,67793,16.45,Hadley,MA,FALSE,FALSE,FALSE,2026-03-31,2026-03-31
01201,Pittsfield,MA,"Pittsfield, MA",Berkshire County,42.454302,-73.282074,304109,1502,1.25,5.93,2.66,-25.75,-1827,3329,76027,27.95,Glenmont,NY,FALSE,FALSE,FALSE,2026-03-31,2026-03-31
01301,Greenfield,MA,"Springfield, MA",Franklin County,42.626761,-72.60153,331976,1700,0.48,6.15,2.85,-22.12,-1713,3413,82994,18.78,Hadley,MA,FALSE,FALSE,FALSE,2026-03-31,2026-03-31
01420,Fitchburg,MA,"Worcester, MA-CT",Worcester County,42.584925,-71.816862,396164,1803,1.31,5.46,2.25,-19,-1757,3560,99041,21.03,Nashua,NH,FALSE,FALSE,FALSE,2026-03-31,2026-03-31
01432,Ayer,MA,"Boston-Cambridge-Newton, MA-NH",Middlesex County,42.566588,-71.575126,562477,1825,2.41,3.89,0.89,-15.88,-2085,3910,140619,9.97,Acton,MA,FALSE,FALSE,TRUE,2026-03-31,2026-03-31
01440,Gardner,MA,"Worcester, MA-CT",Worcester County,42.588337,-71.986069,368962,1590,1.09,5.17,2,-21.9,-1886,3476,92240,24.72,Shrewsbury,MA,FALSE,FALSE,FALSE,2026-03-31,2026-03-31
01453,Leominster,MA,"Worcester, MA-CT",Worcester County,42.519967,-71.763319,463705,1786,1.5,4.62,1.52,-17.68,-1913,3699,115926,16.91,Shrewsbury,MA,FALSE,FALSE,FALSE,2026-03-31,2026-03-31
01510,Clinton,MA,"Worcester, MA-CT",Worcester County,42.411887,-71.690005,446545,2259,-0.7,6.07,2.78,-14.06,-1465,3724,111636,9.94,Shrewsbury,MA,FALSE,FALSE,TRUE,2026-03-31,2026-03-31
01527,Millbury,MA,"Worcester, MA-CT",Worcester County,42.192246,-71.777649,501054,2589,1.43,6.2,2.89,-11.05,-1292,3881,125264,5.9,Shrewsbury,MA,FALSE,FALSE,TRUE,2026-03-31,2026-03-31
01545,Shrewsbury,MA,"Worcester, MA-CT",Worcester County,42.284767,-71.714228,690921,2394,1.34,4.16,1.12,-11.52,-1857,4251,172730,2,Shrewsbury,MA,TRUE,TRUE,TRUE,2026-03-31,2026-03-31
01550,Southbridge,MA,"Worcester, MA-CT",Worcester County,42.059737,-72.033908,373454,1800,0.96,5.78,2.53,-19.65,-1713,3512,93363,20.77,Shrewsbury,MA,FALSE,FALSE,FALSE,2026-03-31,2026-03-31
01560,Grafton,MA,"Worcester, MA-CT",Worcester County,42.175395,-71.674223,576587,2300,1.4,4.79,1.66,-12.64,-1701,4001,144147,7.95,Shrewsbury,MA,FALSE,FALSE,TRUE,2026-03-31,2026-03-31
01562,Spencer,MA,"Worcester, MA-CT",Worcester County,42.247211,-71.991867,432940,2054,0.7,5.69,2.45,-15.99,-1615,3669,108235,12.46,Shrewsbury,MA,FALSE,FALSE,FALSE,2026-03-31,2026-03-31
01570,Webster,MA,"Worcester, MA-CT",Worcester County,42.049253,-71.846219,436685,1724,1.49,4.74,1.62,-18.75,-1910,3634,109171,16.36,Shrewsbury,MA,FALSE,FALSE,FALSE,2026-03-31,2026-03-31
01581,Westborough,MA,"Worcester, MA-CT",Worcester County,42.268426,-71.613309,734729,2679,0.04,4.38,1.31,-9.92,-1700,4379,183682,7.07,Shrewsbury,MA,FALSE,FALSE,TRUE,2026-03-31,2026-03-31
01602,Worcester,MA,"Worcester, MA-CT",Worcester County,42.269189,-71.850728,448962,2640,0.91,7.06,3.64,-10.87,-1139,3779,112240,5.11,Shrewsbury,MA,FALSE,FALSE,TRUE,2026-03-31,2026-03-31
01603,Worcester,MA,"Worcester, MA-CT",Worcester County,42.243826,-71.843569,393721,2146,1.51,6.54,3.19,-15.82,-1453,3600,98430,5.2,Shrewsbury,MA,FALSE,FALSE,TRUE,2026-03-31,2026-03-31
01604,Worcester,MA,"Worcester, MA-CT",Worcester County,42.253485,-71.767932,418106,2203,1.03,6.32,3,-14.92,-1455,3658,104527,1.74,Shrewsbury,MA,TRUE,TRUE,TRUE,2026-03-31,2026-03-31
01605,Worcester,MA,"Worcester, MA-CT",Worcester County,42.289683,-71.787793,440205,2454,1.68,6.69,3.32,-12.49,-1283,3737,110051,2.12,Shrewsbury,MA,FALSE,TRUE,TRUE,2026-03-31,2026-03-31
01606,Worcester,MA,"Worcester, MA-CT",Worcester County,42.313887,-71.794185,436778,2229,0.2,6.12,2.83,-14.44,-1472,3700,109195,3.45,Shrewsbury,MA,FALSE,TRUE,TRUE,2026-03-31,2026-03-31
01607,Worcester,MA,"Worcester, MA-CT",Worcester County,42.225974,-71.788894,384761,1888,1.18,5.89,2.62,-18.49,-1660,3547,96190,3.92,Shrewsbury,MA,FALSE,TRUE,TRUE,2026-03-31,2026-03-31
01608,Worcester,MA,"Worcester, MA-CT",Worcester County,42.26209,-71.801428,189605,1826,4.68,11.55,7.55,-29.55,-1307,3133,47401,2.73,Shrewsbury,MA,FALSE,TRUE,TRUE,2026-03-31,2026-03-31
01609,Worcester,MA,"Worcester, MA-CT",Worcester County,42.285114,-71.829987,538912,1884,1.93,4.2,1.15,-15.78,-1984,3868,134728,4.08,Shrewsbury,MA,FALSE,TRUE,TRUE,2026-03-31,2026-03-31
01610,Worcester,MA,"Worcester, MA-CT",Worcester County,42.247049,-71.808366,369310,2135,3.9,6.94,3.54,-16.39,-1412,3547,92328,3.52,Shrewsbury,MA,FALSE,TRUE,TRUE,2026-03-31,2026-03-31
01701,Framingham,MA,"Boston-Cambridge-Newton, MA-NH",Middlesex County,42.319587,-71.4428,705058,2355,0.21,4.01,0.99,-11.67,-1921,4275,176264,1.68,Framingham,MA,TRUE,TRUE,TRUE,2026-03-31,2026-03-31
01702,Framingham,MA,"Boston-Cambridge-Newton, MA-NH",Middlesex County,42.282379,-71.436623,565374,2304,0.56,4.89,1.75,-12.69,-1674,3978,141344,1.3,Framingham,MA,TRUE,TRUE,TRUE,2026-03-31,2026-03-31
01720,Acton,MA,"Boston-Cambridge-Newton, MA-NH",Middlesex County,42.483953,-71.438495,885902,2568,-0.12,3.48,0.53,-10.22,-2112,4680,221476,1.18,Acton,MA,TRUE,TRUE,TRUE,2026-03-31,2026-03-31
01721,Ashland,MA,"Boston-Cambridge-Newton, MA-NH",Middlesex County,42.257755,-71.473526,670614,2697,1.44,4.83,1.7,-9.91,-1551,4248,167653,3.78,Framingham,MA,FALSE,TRUE,TRUE,2026-03-31,2026-03-31
01730,Bedford,MA,"Boston-Cambridge-Newton, MA-NH",Middlesex County,42.499332,-71.281901,1029898,2912,2.93,3.39,0.45,-8.79,-2113,5025,257475,4.05,Burlington,MA,FALSE,TRUE,TRUE,2026-03-31,2026-03-31
01742,Concord,MA,"Boston-Cambridge-Newton, MA-NH",Middlesex County,42.462911,-71.364496,1434084,3445,1.94,2.88,0.01,-7.44,-2491,5936,358521,2.94,Acton,MA,FALSE,TRUE,TRUE,2026-03-31,2026-03-31
01748,Hopkinton,MA,"Boston-Cambridge-Newton, MA-NH",Middlesex County,42.224096,-71.540489,963829,2894,3.03,3.6,0.63,-8.85,-1990,4885,240957,4.81,Milford,MA,FALSE,TRUE,TRUE,2026-03-31,2026-03-31
01749,Hudson,MA,"Boston-Cambridge-Newton, MA-NH",Middlesex County,42.389071,-71.545864,611714,2551,0.99,5.01,1.85,-10.9,-1555,4107,152928,8.75,Framingham,MA,FALSE,FALSE,TRUE,2026-03-31,2026-03-31
01752,Marlborough,MA,"Boston-Cambridge-Newton, MA-NH",Middlesex County,42.349617,-71.547214,579209,2523,0.53,5.23,2.05,-11.19,-1512,4035,144802,7.14,Framingham,MA,FALSE,FALSE,TRUE,2026-03-31,2026-03-31
01754,Maynard,MA,"Boston-Cambridge-Newton, MA-NH",Middlesex County,42.425955,-71.456256,606024,2681,0.23,5.31,2.12,-10.12,-1431,4112,151506,4.47,Acton,MA,FALSE,TRUE,TRUE,2026-03-31,2026-03-31
01757,Milford,MA,"Worcester, MA-CT",Worcester County,42.158692,-71.521419,558318,2422,1.85,5.21,2.03,-11.95,-1556,3979,139580,1.01,Milford,MA,TRUE,TRUE,TRUE,2026-03-31,2026-03-31
01760,Natick,MA,"Boston-Cambridge-Newton, MA-NH",Middlesex County,42.284822,-71.348811,890079,2679,1.14,3.61,0.64,-9.74,-2024,4703,222520,4.03,Framingham,MA,FALSE,TRUE,TRUE,2026-03-31,2026-03-31
01778,Wayland,MA,"Boston-Cambridge-Newton, MA-NH",Middlesex County,42.356275,-71.361942,1149457,3365,1.91,3.51,0.56,-7.34,-1968,5333,287364,5.1,Framingham,MA,FALSE,FALSE,TRUE,2026-03-31,2026-03-31
01801,Woburn,MA,"Boston-Cambridge-Newton, MA-NH",Middlesex County,42.488703,-71.154383,758840,2629,1.65,4.16,1.12,-10.13,-1794,4423,189710,3.06,Burlington,MA,FALSE,TRUE,TRUE,2026-03-31,2026-03-31
01803,Burlington,MA,"Boston-Cambridge-Newton, MA-NH",Middlesex County,42.503227,-71.201713,878367,3178,1.1,4.34,1.28,-7.64,-1566,4744,219592,2.11,Burlington,MA,FALSE,TRUE,TRUE,2026-03-31,2026-03-31
01810,Andover,MA,"Boston-Cambridge-Newton, MA-NH",Essex County,42.648044,-71.161751,990662,2632,3.01,3.19,0.27,-9.84,-2275,4906,247665,9.51,Reading,MA,FALSE,FALSE,TRUE,2026-03-31,2026-03-31
01821,Billerica,MA,"Boston-Cambridge-Newton, MA-NH",Middlesex County,42.54933,-71.251725,698304,2739,1.64,4.71,1.59,-9.65,-1573,4311,174576,5.65,Burlington,MA,FALSE,FALSE,TRUE,2026-03-31,2026-03-31
01824,Chelmsford,MA,"Boston-Cambridge-Newton, MA-NH",Middlesex County,42.59079,-71.355182,714084,2665,0.06,4.48,1.4,-10.02,-1670,4335,178521,8.04,Acton,MA,FALSE,FALSE,TRUE,2026-03-31,2026-03-31
01826,Dracut,MA,"Boston-Cambridge-Newton, MA-NH",Middlesex County,42.679723,-71.30068,570656,2321,0.07,4.88,1.75,-12.54,-1670,3991,142664,7.26,Nashua,NH,FALSE,FALSE,TRUE,2026-03-31,2026-03-31
01830,Haverhill,MA,"Boston-Cambridge-Newton, MA-NH",Essex County,42.796313,-71.053436,552085,2270,2.42,4.93,1.79,-13.01,-1676,3946,138021,17.73,Peabody,MA,FALSE,FALSE,FALSE,2026-03-31,2026-03-31
01832,Haverhill,MA,"Boston-Cambridge-Newton, MA-NH",Essex County,42.791114,-71.132859,519808,2091,3.09,4.83,1.7,-14.55,-1765,3855,129952,16.53,Nashua,NH,FALSE,FALSE,FALSE,2026-03-31,2026-03-31
01835,Haverhill,MA,"Boston-Cambridge-Newton, MA-NH",Essex County,42.751325,-71.094411,559104,2528,2.51,5.43,2.22,-11.23,-1465,3994,139776,15.59,Peabody,MA,FALSE,FALSE,FALSE,2026-03-31,2026-03-31
01840,Lawrence,MA,"Boston-Cambridge-Newton, MA-NH",Essex County,42.706763,-71.160403,375332,2352,4.95,7.52,4.04,-14.12,-1236,3588,93833,13.35,Reading,MA,FALSE,FALSE,FALSE,2026-03-31,2026-03-31
01843,Lawrence,MA,"Boston-Cambridge-Newton, MA-NH",Essex County,42.689988,-71.16039,526417,2388,2.97,5.44,2.24,-12.37,-1519,3908,131604,12.24,Reading,MA,FALSE,FALSE,FALSE,2026-03-31,2026-03-31
01844,Methuen,MA,"Boston-Cambridge-Newton, MA-NH",Essex County,42.742641,-71.178651,617001,2419,2.73,4.71,1.59,-11.68,-1681,4100,154250,13.4,Nashua,NH,FALSE,FALSE,FALSE,2026-03-31,2026-03-31
01845,North Andover,MA,"Boston-Cambridge-Newton, MA-NH",Essex County,42.673909,-71.091334,806763,2729,1.8,4.06,1.03,-9.6,-1807,4536,201691,10.64,Reading,MA,FALSE,FALSE,FALSE,2026-03-31,2026-03-31
01851,Lowell,MA,"Boston-Cambridge-Newton, MA-NH",Middlesex County,42.627999,-71.336757,518137,2261,0.41,5.24,2.06,-13.34,-1613,3874,129534,7.57,Nashua,NH,FALSE,FALSE,TRUE,2026-03-31,2026-03-31
01852,Lowell,MA,"Boston-Cambridge-Newton, MA-NH",Middlesex County,42.632978,-71.295616,467784,2216,1.06,5.69,2.45,-14.17,-1547,3763,116946,8.92,Nashua,NH,FALSE,FALSE,TRUE,2026-03-31,2026-03-31
01854,Lowell,MA,"Boston-Cambridge-Newton, MA-NH",Middlesex County,42.649481,-71.348229,476060,2400,-0.18,6.05,2.76,-12.64,-1404,3804,119015,6.11,Nashua,NH,FALSE,FALSE,TRUE,2026-03-31,2026-03-31
01862,Billerica,MA,"Boston-Cambridge-Newton, MA-NH",Middlesex County,42.578543,-71.295592,722118,2671,1.54,4.44,1.36,-9.98,-1681,4352,180530,8.45,Burlington,MA,FALSE,FALSE,TRUE,2026-03-31,2026-03-31
01863,Chelmsford,MA,"Boston-Cambridge-Newton, MA-NH",Middlesex County,42.630484,-71.397895,551937,2537,0.59,5.52,2.3,-11.21,-1443,3980,137984,5.74,Nashua,NH,FALSE,FALSE,TRUE,2026-03-31,2026-03-31
01867,Reading,MA,"Boston-Cambridge-Newton, MA-NH",Middlesex County,42.535183,-71.105423,914957,3309,2.69,4.34,1.28,-7.16,-1528,4837,228739,1.22,Reading,MA,TRUE,TRUE,TRUE,2026-03-31,2026-03-31
01876,Tewksbury,MA,"Boston-Cambridge-Newton, MA-NH",Middlesex County,42.611893,-71.227226,674336,2609,1.87,4.64,1.54,-10.39,-1635,4245,168584,9.32,Reading,MA,FALSE,FALSE,TRUE,2026-03-31,2026-03-31
01879,Tyngsboro,MA,"Boston-Cambridge-Newton, MA-NH",Middlesex County,42.667762,-71.42882,650865,3350,1.66,6.18,2.87,-6.2,-942,4292,162716,2.82,Nashua,NH,FALSE,TRUE,TRUE,2026-03-31,2026-03-31
01880,Wakefield,MA,"Boston-Cambridge-Newton, MA-NH",Middlesex County,42.504361,-71.064061,814840,2697,2.22,3.97,0.96,-9.74,-1851,4549,203710,1.83,Reading,MA,TRUE,TRUE,TRUE,2026-03-31,2026-03-31
01886,Westford,MA,"Boston-Cambridge-Newton, MA-NH",Middlesex County,42.585541,-71.44025,835638,3008,-0.91,4.32,1.26,-8.33,-1625,4632,208909,7.18,Acton,MA,FALSE,FALSE,TRUE,2026-03-31,2026-03-31
01887,Wilmington,MA,"Boston-Cambridge-Newton, MA-NH",Middlesex County,42.564647,-71.164516,777443,3171,2.09,4.89,1.76,-7.51,-1362,4532,194361,4.77,Reading,MA,FALSE,TRUE,TRUE,2026-03-31,2026-03-31
01890,Winchester,MA,"Boston-Cambridge-Newton, MA-NH",Middlesex County,42.452752,-71.144319,1555556,3215,1.98,2.48,-0.34,-8.11,-2944,6159,388889,2.95,Arlington,MA,FALSE,TRUE,TRUE,2026-03-31,2026-03-31
01901,Lynn,MA,"Boston-Cambridge-Newton, MA-NH",Essex County,42.460419,-70.946379,465245,2216,-0.84,5.72,2.47,-14.2,-1542,3758,116311,3.96,Saugus,MA,FALSE,TRUE,TRUE,2026-03-31,2026-03-31
01902,Lynn,MA,"Boston-Cambridge-Newton, MA-NH",Essex County,42.471039,-70.941535,535309,2487,0.18,5.58,2.35,-11.62,-1452,3939,133827,3.97,Saugus,MA,FALSE,TRUE,TRUE,2026-03-31,2026-03-31
01905,Lynn,MA,"Boston-Cambridge-Newton, MA-NH",Essex County,42.462378,-70.972343,575152,2468,0.44,5.15,1.98,-11.56,-1552,4020,143788,2.73,Saugus,MA,FALSE,TRUE,TRUE,2026-03-31,2026-03-31
01906,Saugus,MA,"Boston-Cambridge-Newton, MA-NH",Essex County,42.469675,-71.012785,687235,2867,0.52,5.01,1.86,-8.97,-1438,4305,171809,0.98,Saugus,MA,TRUE,TRUE,TRUE,2026-03-31,2026-03-31
01907,Swampscott,MA,"Boston-Cambridge-Newton, MA-NH",Essex County,42.474145,-70.906597,818953,2724,1.83,3.99,0.97,-9.61,-1836,4561,204738,5.69,Saugus,MA,FALSE,FALSE,TRUE,2026-03-31,2026-03-31
01913,Amesbury,MA,"Boston-Cambridge-Newton, MA-NH",Essex County,42.851277,-70.955792,619596,2445,2.17,4.74,1.62,-11.51,-1664,4109,154899,18.57,Portsmouth,NH,FALSE,FALSE,FALSE,2026-03-31,2026-03-31
01915,Beverly,MA,"Boston-Cambridge-Newton, MA-NH",Essex County,42.570442,-70.867693,755830,2559,3.35,4.06,1.04,-10.48,-1848,4408,188958,4.74,Peabody,MA,FALSE,TRUE,TRUE,2026-03-31,2026-03-31
01923,Danvers,MA,"Boston-Cambridge-Newton, MA-NH",Essex County,42.574174,-70.950516,728534,2775,2.11,4.57,1.48,-9.44,-1604,4379,182134,1.72,Peabody,MA,TRUE,TRUE,TRUE,2026-03-31,2026-03-31
01930,Gloucester,MA,"Boston-Cambridge-Newton, MA-NH",Essex County,42.620291,-70.677956,760869,2660,2.42,4.19,1.15,-9.98,-1772,4431,190217,14.99,Peabody,MA,FALSE,FALSE,FALSE,2026-03-31,2026-03-31
01938,Ipswich,MA,"Boston-Cambridge-Newton, MA-NH",Essex County,42.686464,-70.839594,843011,2400,1.78,3.42,0.47,-11.03,-2169,4569,210753,11.16,Peabody,MA,FALSE,FALSE,FALSE,2026-03-31,2026-03-31
01940,Lynnfield,MA,"Boston-Cambridge-Newton, MA-NH",Essex County,42.534146,-71.038333,1079290,2976,2.21,3.31,0.38,-8.58,-2160,5136,269823,2.96,Reading,MA,FALSE,TRUE,TRUE,2026-03-31,2026-03-31
01945,Marblehead,MA,"Boston-Cambridge-Newton, MA-NH",Essex County,42.504317,-70.851542,1027422,2833,1.09,3.31,0.38,-9.08,-2176,5009,256855,6.2,Peabody,MA,FALSE,FALSE,TRUE,2026-03-31,2026-03-31
01950,Newburyport,MA,"Boston-Cambridge-Newton, MA-NH",Essex County,42.812358,-70.891095000000007,923070,3097,4.02,4.03,1,-8.03,-1729,4826,230768,18.45,Peabody,MA,FALSE,FALSE,FALSE,2026-03-31,2026-03-31
01960,Peabody,MA,"Boston-Cambridge-Newton, MA-NH",Essex County,42.53431,-70.969443,695241,2766,0.95,4.77,1.65,-9.51,-1543,4308,173810,1.25,Peabody,MA,TRUE,TRUE,TRUE,2026-03-31,2026-03-31
01970,Salem,MA,"Boston-Cambridge-Newton, MA-NH",Essex County,42.529248,-70.868017,604385,2576,0.76,5.11,1.95,-10.77,-1519,4094,151096,4.72,Peabody,MA,FALSE,TRUE,TRUE,2026-03-31,2026-03-31
02019,Bellingham,MA,"Boston-Cambridge-Newton, MA-NH",Norfolk County,42.076682,-71.47449,538218,2536,0.63,5.65,2.42,-11.27,-1416,3951,134554,5.96,Milford,MA,FALSE,FALSE,TRUE,2026-03-31,2026-03-31
02021,Canton,MA,"Boston-Cambridge-Newton, MA-NH",Norfolk County,42.175737,-71.125385,805747,2786,2.12,4.15,1.11,-9.33,-1755,4541,201437,7.53,Boston,MA,FALSE,FALSE,TRUE,2026-03-31,2026-03-31
02026,Dedham,MA,"Boston-Cambridge-Newton, MA-NH",Norfolk County,42.246872,-71.179462,765325,3061,0.84,4.8,1.68,-8.02,-1432,4493,191331,2.67,Boston,MA,FALSE,TRUE,TRUE,2026-03-31,2026-03-31
02032,Walpole,MA,"Boston-Cambridge-Newton, MA-NH",Norfolk County,42.156882,-71.216187,801337,3260,-0.63,4.88,1.75,-7.13,-1334,4594,200334,5.56,Foxborough,MA,FALSE,FALSE,TRUE,2026-03-31,2026-03-31
02035,Foxborough,MA,"Boston-Cambridge-Newton, MA-NH",Norfolk County,42.061338,-71.245802,713898,2772,0.05,4.66,1.55,-9.46,-1577,4348,178474,2.12,Foxborough,MA,FALSE,TRUE,TRUE,2026-03-31,2026-03-31
02038,Franklin,MA,"Boston-Cambridge-Newton, MA-NH",Norfolk County,42.084858,-71.410571,701555,2591,1.54,4.43,1.36,-10.43,-1708,4299,175389,7.02,Milford,MA,FALSE,FALSE,TRUE,2026-03-31,2026-03-31
02043,Hingham,MA,"Boston-Cambridge-Newton, MA-NH",Plymouth County,42.216098,-70.88127,1304967,3284,5.42,3.02,0.13,-7.76,-2362,5646,326242,3.15,Hingham,MA,FALSE,TRUE,TRUE,2026-03-31,2026-03-31
02045,Hull,MA,"Boston-Cambridge-Newton, MA-NH",Plymouth County,42.28587,-70.879517,704096,3200,2.11,5.45,2.24,-7.2,-1183,4383,176024,3.4,Hingham,MA,FALSE,TRUE,TRUE,2026-03-31,2026-03-31
02048,Mansfield,MA,"Providence-Warwick, RI-MA",Bristol County,42.017302,-71.21642,708854,2693,2.16,4.56,1.47,-9.88,-1634,4327,177213,5.5,Foxborough,MA,FALSE,FALSE,TRUE,2026-03-31,2026-03-31
02050,Marshfield,MA,"Boston-Cambridge-Newton, MA-NH",Plymouth County,42.115139,-70.710331,793536,2416,3.87,3.65,0.68,-11.08,-2052,4468,198384,6.24,Hanover,MA,FALSE,FALSE,TRUE,2026-03-31,2026-03-31
02053,Medway,MA,"Boston-Cambridge-Newton, MA-NH",Norfolk County,42.156203,-71.430345,718565,3089,0.27,5.16,1.99,-7.81,-1310,4399,179641,3.68,Milford,MA,FALSE,TRUE,TRUE,2026-03-31,2026-03-31
02062,Norwood,MA,"Boston-Cambridge-Newton, MA-NH",Norfolk County,42.187389,-71.192477,732044,2577,0.35,4.22,1.17,-10.44,-1784,4360,183011,6.78,Boston,MA,FALSE,FALSE,TRUE,2026-03-31,2026-03-31
02067,Sharon,MA,"Boston-Cambridge-Newton, MA-NH",Norfolk County,42.1076,-71.181828,867798,2840,-0.52,3.93,0.92,-9.07,-1837,4678,216950,4.71,Foxborough,MA,FALSE,TRUE,TRUE,2026-03-31,2026-03-31
02072,Stoughton,MA,"Boston-Cambridge-Newton, MA-NH",Norfolk County,42.119006,-71.10365,602742,2618,0.36,5.21,2.03,-10.51,-1479,4096,150686,8.78,Foxborough,MA,FALSE,FALSE,TRUE,2026-03-31,2026-03-31
02081,Walpole,MA,"Boston-Cambridge-Newton, MA-NH",Norfolk County,42.147403,-71.257972,765570,2645,0.71,4.15,1.11,-10.04,-1794,4439,191393,4.24,Foxborough,MA,FALSE,TRUE,TRUE,2026-03-31,2026-03-31
02090,Westwood,MA,"Boston-Cambridge-Newton, MA-NH",Norfolk County,42.219645,-71.216768,1231306,3330,1.88,3.24,0.32,-7.55,-2169,5499,307826,5.13,Needham,MA,FALSE,FALSE,TRUE,2026-03-31,2026-03-31
02108,Boston,MA,"Boston-Cambridge-Newton, MA-NH",Suffolk County,42.355097,-71.065737,1670302,3136,-0.43,2.25,-0.54,-8.34,-3252,6388,417576,0.55,Boston,MA,TRUE,TRUE,TRUE,2026-03-31,2026-03-31
02109,Boston,MA,"Boston-Cambridge-Newton, MA-NH",Suffolk County,42.366919,-71.050416,957861,3821,0.39,4.79,1.66,-5.24,-1171,4993,239465,1.05,Boston,MA,TRUE,TRUE,TRUE,2026-03-31,2026-03-31
02110,Boston,MA,"Boston-Cambridge-Newton, MA-NH",Suffolk County,42.358254,-71.051927,1419119,5000,-2.28,4.23,1.18,-3.34,-1107,6107,354780,0.5,Boston,MA,TRUE,TRUE,TRUE,2026-03-31,2026-03-31
02111,Boston,MA,"Boston-Cambridge-Newton, MA-NH",Suffolk County,42.35068,-71.060527,987790,3703,-1.77,4.5,1.41,-5.8,-1337,5040,246948,0.68,Boston,MA,TRUE,TRUE,TRUE,2026-03-31,2026-03-31
02113,Boston,MA,"Boston-Cambridge-Newton, MA-NH",Suffolk County,42.365264,-71.055222,727440,3449,1.09,5.69,2.45,-5.98,-1016,4464,181860,1.01,Boston,MA,TRUE,TRUE,TRUE,2026-03-31,2026-03-31
02114,Boston,MA,"Boston-Cambridge-Newton, MA-NH",Suffolk County,42.363651,-71.066888,741485,3510,-3.33,5.68,2.44,-5.73,-992,4501,185371,1,Boston,MA,TRUE,TRUE,TRUE,2026-03-31,2026-03-31
02115,Boston,MA,"Boston-Cambridge-Newton, MA-NH",Suffolk County,42.339422,-71.094531,944736,3627,-0.54,4.61,1.51,-5.96,-1313,4940,236184,0.82,Boston,MA,TRUE,TRUE,TRUE,2026-03-31,2026-03-31
02116,Boston,MA,"Boston-Cambridge-Newton, MA-NH",Suffolk County,42.350979,-71.076591,1352775,3431,-0.92,3.04,0.15,-7.39,-2334,5765,338194,0.12,Boston,MA,TRUE,TRUE,TRUE,2026-03-31,2026-03-31
02118,Boston,MA,"Boston-Cambridge-Newton, MA-NH",Suffolk County,42.33786,-71.069805,984585,3959,1.92,4.82,1.7,-4.82,-1108,5066,246146,0.9,Boston,MA,TRUE,TRUE,TRUE,2026-03-31,2026-03-31
02119,Boston,MA,"Boston-Cambridge-Newton, MA-NH",Suffolk County,42.324066,-71.085188,656363,3757,-0.19,6.87,3.48,-3.91,-599,4356,164091,1.69,Boston,MA,TRUE,TRUE,TRUE,2026-03-31,2026-03-31
02120,Boston,MA,"Boston-Cambridge-Newton, MA-NH",Suffolk County,42.332134,-71.096606,949211,4920,9.42,6.22,2.91,-0.89,-197,5118,237303,1.3,Boston,MA,TRUE,TRUE,TRUE,2026-03-31,2026-03-31
02121,Boston,MA,"Boston-Cambridge-Newton, MA-NH",Suffolk County,42.305403,-71.086971,644984,3170,-2.24,5.9,2.63,-7.22,-1086,4256,161246,2.98,Boston,MA,FALSE,TRUE,TRUE,2026-03-31,2026-03-31
02122,Boston,MA,"Boston-Cambridge-Newton, MA-NH",Suffolk County,42.295088,-71.052533,672828,2902,0.32,5.18,2,-8.77,-1377,4279,168207,3.93,Boston,MA,FALSE,TRUE,TRUE,2026-03-31,2026-03-31
02124,Boston,MA,"Boston-Cambridge-Newton, MA-NH",Suffolk County,42.285922,-71.075046,695515,3016,0.77,5.2,2.03,-8.17,-1326,4341,173879,4.24,Boston,MA,FALSE,TRUE,TRUE,2026-03-31,2026-03-31
02125,Boston,MA,"Boston-Cambridge-Newton, MA-NH",Suffolk County,42.315682,-71.055555,663556,3402,-1.45,6.15,2.85,-5.96,-924,4325,165889,2.54,Boston,MA,FALSE,TRUE,TRUE,2026-03-31,2026-03-31
02126,Boston,MA,"Boston-Cambridge-Newton, MA-NH",Suffolk County,42.277436,-71.089968,601427,3300,-0.86,6.58,3.23,-6.29,-882,4182,150357,3.48,Boston,MA,FALSE,TRUE,TRUE,2026-03-31,2026-03-31
02127,Boston,MA,"Boston-Cambridge-Newton, MA-NH",Suffolk County,42.335301,-71.038216,868077,3966,-0.52,5.48,2.27,-4.24,-858,4825,217019,1.23,Boston,MA,TRUE,TRUE,TRUE,2026-03-31,2026-03-31
02128,Boston,MA,"Boston-Cambridge-Newton, MA-NH",Suffolk County,42.361519,-71.007393,667693,3071,0.69,5.52,2.3,-7.83,-1220,4291,166923,2.14,Boston,MA,FALSE,TRUE,TRUE,2026-03-31,2026-03-31
02129,Boston,MA,"Boston-Cambridge-Newton, MA-NH",Suffolk County,42.379657,-71.061487,1004680,3313,0.98,3.96,0.94,-7.3,-1712,5024,251170,1.55,Somerville,MA,TRUE,TRUE,TRUE,2026-03-31,2026-03-31
02130,Boston,MA,"Boston-Cambridge-Newton, MA-NH",Suffolk County,42.308175,-71.113471,812716,3364,0.52,4.97,1.82,-6.68,-1267,4631,203179,2.36,Brookline,MA,FALSE,TRUE,TRUE,2026-03-31,2026-03-31
02131,Boston,MA,"Boston-Cambridge-Newton, MA-NH",Suffolk County,42.282323,-71.124746,727824,2925,-1,4.82,1.7,-8.67,-1472,4397,181956,1.69,Boston,MA,TRUE,TRUE,TRUE,2026-03-31,2026-03-31
02132,Boston,MA,"Boston-Cambridge-Newton, MA-NH",Suffolk County,42.279082,-71.160449,815721,2778,0.75,4.09,1.06,-9.37,-1783,4561,203930,0.24,Boston,MA,TRUE,TRUE,TRUE,2026-03-31,2026-03-31
02134,Boston,MA,"Boston-Cambridge-Newton, MA-NH",Suffolk County,42.358786,-71.129581,887587,3009,5.29,4.07,1.04,-8.36,-1732,4741,221897,0.33,Allston,MA,TRUE,TRUE,TRUE,2026-03-31,2026-03-31
02135,Boston,MA,"Boston-Cambridge-Newton, MA-NH",Suffolk County,42.349688,-71.153964,680609,3123,-1.85,5.51,2.29,-7.56,-1201,4324,170152,1.56,Allston,MA,TRUE,TRUE,TRUE,2026-03-31,2026-03-31
02136,Boston,MA,"Boston-Cambridge-Newton, MA-NH",Suffolk County,42.254749,-71.127072,653020,2635,1.6,4.84,1.71,-10.29,-1568,4203,163255,2.45,Boston,MA,FALSE,TRUE,TRUE,2026-03-31,2026-03-31
02138,Cambridge,MA,"Boston-Cambridge-Newton, MA-NH",Middlesex County,42.379637,-71.135152,1142125,3270,-0.71,3.44,0.49,-7.63,-2035,5305,285531,0.84,Cambridge,MA,TRUE,TRUE,TRUE,2026-03-31,2026-03-31
02139,Cambridge,MA,"Boston-Cambridge-Newton, MA-NH",Middlesex County,42.362391,-71.102336,997342,3759,-1.09,4.52,1.43,-5.62,-1308,5067,249336,0.67,Cambridge,MA,TRUE,TRUE,TRUE,2026-03-31,2026-03-31
02140,Cambridge,MA,"Boston-Cambridge-Newton, MA-NH",Middlesex County,42.392157,-71.133996,1110633,3217,-5.05,3.48,0.52,-7.78,-2016,5232,277658,0.51,Cambridge,MA,TRUE,TRUE,TRUE,2026-03-31,2026-03-31
02141,Cambridge,MA,"Boston-Cambridge-Newton, MA-NH",Middlesex County,42.3703,-71.08256,916692,3563,2.79,4.66,1.56,-6.13,-1311,4873,229173,1.44,Boston,MA,TRUE,TRUE,TRUE,2026-03-31,2026-03-31
02142,Cambridge,MA,"Boston-Cambridge-Newton, MA-NH",Middlesex County,42.362505,-71.08096,1311573,3907,-0.49,3.57,0.61,-5.99,-1834,5741,327893,0.9,Boston,MA,TRUE,TRUE,TRUE,2026-03-31,2026-03-31
02143,Somerville,MA,"Boston-Cambridge-Newton, MA-NH",Middlesex County,42.3814,-71.09672,940832,3369,0.93,4.3,1.24,-6.97,-1529,4899,235208,1.21,Somerville,MA,TRUE,TRUE,TRUE,2026-03-31,2026-03-31
02144,Somerville,MA,"Boston-Cambridge-Newton, MA-NH",Middlesex County,42.400077,-71.123088,1057592,3857,-0.64,4.38,1.31,-5.46,-1349,5205,264398,1.26,Cambridge,MA,TRUE,TRUE,TRUE,2026-03-31,2026-03-31
02145,Somerville,MA,"Boston-Cambridge-Newton, MA-NH",Middlesex County,42.391577,-71.08991,842836,3482,1.97,4.96,1.81,-6.24,-1227,4709,210709,0.46,Somerville,MA,TRUE,TRUE,TRUE,2026-03-31,2026-03-31
02148,Malden,MA,"Boston-Cambridge-Newton, MA-NH",Middlesex County,42.42938,-71.058706,682971,2602,0.88,4.57,1.48,-10.41,-1660,4262,170743,2.64,Somerville,MA,FALSE,TRUE,TRUE,2026-03-31,2026-03-31
02149,Everett,MA,"Boston-Cambridge-Newton, MA-NH",Middlesex County,42.405938,-71.054649,639349,2723,1.41,5.11,1.95,-9.81,-1463,4186,159837,1.6,Somerville,MA,TRUE,TRUE,TRUE,2026-03-31,2026-03-31
02150,Chelsea,MA,"Boston-Cambridge-Newton, MA-NH",Suffolk County,42.396824,-71.031348,525536,2596,-0.16,5.93,2.66,-10.9,-1336,3933,131384,2.63,Somerville,MA,FALSE,TRUE,TRUE,2026-03-31,2026-03-31
02151,Revere,MA,"Boston-Cambridge-Newton, MA-NH",Suffolk County,42.41829,-71.001251,613244,2724,0.37,5.33,2.14,-9.84,-1408,4132,153311,4.45,Somerville,MA,FALSE,TRUE,TRUE,2026-03-31,2026-03-31
02152,Winthrop,MA,"Boston-Cambridge-Newton, MA-NH",Suffolk County,42.377382,-70.977026,687724,2584,0.47,4.51,1.42,-10.5,-1685,4269,171931,4,Boston,MA,FALSE,TRUE,TRUE,2026-03-31,2026-03-31
02155,Medford,MA,"Boston-Cambridge-Newton, MA-NH",Middlesex County,42.42384,-71.107673,842755,3208,0.8,4.57,1.47,-7.45,-1465,4673,210689,2.33,Somerville,MA,FALSE,TRUE,TRUE,2026-03-31,2026-03-31
02169,Quincy,MA,"Boston-Cambridge-Newton, MA-NH",Norfolk County,42.240016,-71.015205,631220,2661,0.58,5.06,1.9,-10.19,-1501,4161,157805,4.72,Hingham,MA,FALSE,TRUE,TRUE,2026-03-31,2026-03-31
02170,Quincy,MA,"Boston-Cambridge-Newton, MA-NH",Norfolk County,42.266415,-71.015576,752874,2472,0.73,3.94,0.93,-10.92,-1918,4390,188219,4.84,Hingham,MA,FALSE,TRUE,TRUE,2026-03-31,2026-03-31
02171,Quincy,MA,"Boston-Cambridge-Newton, MA-NH",Norfolk County,42.29147,-71.025822,707591,2826,0.32,4.79,1.67,-9.18,-1516,4342,176898,4.31,Boston,MA,FALSE,TRUE,TRUE,2026-03-31,2026-03-31
02176,Melrose,MA,"Boston-Cambridge-Newton, MA-NH",Middlesex County,42.455723,-71.059019,908731,2748,2.67,3.63,0.66,-9.45,-2003,4751,227183,2.85,Saugus,MA,FALSE,TRUE,TRUE,2026-03-31,2026-03-31
02180,Stoneham,MA,"Boston-Cambridge-Newton, MA-NH",Middlesex County,42.474208,-71.097665,807265,3093,2.04,4.6,1.5,-7.92,-1491,4584,201816,3.17,Reading,MA,FALSE,TRUE,TRUE,2026-03-31,2026-03-31
02184,Braintree,MA,"Boston-Cambridge-Newton, MA-NH",Norfolk County,42.206188,-71.00232,728717,2983,1.47,4.91,1.77,-8.37,-1423,4406,182179,4.99,Hingham,MA,FALSE,TRUE,TRUE,2026-03-31,2026-03-31
02186,Milton,MA,"Boston-Cambridge-Newton, MA-NH",Norfolk County,42.241559,-71.082437,1075523,3350,1.28,3.74,0.75,-7.28,-1827,5177,268881,4.76,Boston,MA,FALSE,TRUE,TRUE,2026-03-31,2026-03-31
02188,Weymouth,MA,"Boston-Cambridge-Newton, MA-NH",Norfolk County,42.204662,-70.957633,612664,2315,1.58,4.53,1.44,-12.33,-1763,4078,153166,3.52,Hingham,MA,FALSE,TRUE,TRUE,2026-03-31,2026-03-31
02189,Weymouth,MA,"Boston-Cambridge-Newton, MA-NH",Norfolk County,42.211968,-70.929639,596351,2553,-0.19,5.14,1.97,-10.94,-1522,4075,149088,2.58,Hingham,MA,FALSE,TRUE,TRUE,2026-03-31,2026-03-31
02190,Weymouth,MA,"Boston-Cambridge-Newton, MA-NH",Norfolk County,42.166731,-70.952363,639110,2619,0.7,4.92,1.78,-10.41,-1553,4172,159778,5.87,Hingham,MA,FALSE,FALSE,TRUE,2026-03-31,2026-03-31
02210,Boston,MA,"Boston-Cambridge-Newton, MA-NH",Suffolk County,42.348036,-71.039283,1491994,3992,-1.65,3.21,0.29,-6.13,-2135,6128,372998,0.49,Boston,MA,TRUE,TRUE,TRUE,2026-03-31,2026-03-31
02215,Boston,MA,"Boston-Cambridge-Newton, MA-NH",Suffolk County,42.347635,-71.103082,718993,3433,0.13,5.73,2.48,-6.03,-1012,4445,179748,0.93,Cambridge,MA,TRUE,TRUE,TRUE,2026-03-31,2026-03-31
02301,Brockton,MA,"Boston-Cambridge-Newton, MA-NH",Plymouth County,42.078371,-71.042304,513430,2267,1.63,5.3,2.11,-13.34,-1598,3865,128357,11.22,Hanover,MA,FALSE,FALSE,FALSE,2026-03-31,2026-03-31
02302,Brockton,MA,"Boston-Cambridge-Newton, MA-NH",Plymouth County,42.088907,-70.998375,495638,2725,1.18,6.6,3.24,-10.05,-1162,3887,123909,8.86,Hanover,MA,FALSE,FALSE,TRUE,2026-03-31,2026-03-31
02324,Bridgewater,MA,"Boston-Cambridge-Newton, MA-NH",Plymouth County,41.972376,-70.978773,630033,2543,2.83,4.84,1.71,-10.89,-1601,4144,157508,12.83,Hanover,MA,FALSE,FALSE,FALSE,2026-03-31,2026-03-31
02339,Hanover,MA,"Boston-Cambridge-Newton, MA-NH",Plymouth County,42.122956,-70.85631,815656,2809,4.23,4.13,1.1,-9.22,-1755,4565,203914,1.27,Hanover,MA,TRUE,TRUE,TRUE,2026-03-31,2026-03-31
02346,Middleborough,MA,"Boston-Cambridge-Newton, MA-NH",Plymouth County,41.878004,-70.869267,558845,2144,2.47,4.6,1.5,-13.8,-1800,3943,139711,17,Hanover,MA,FALSE,FALSE,FALSE,2026-03-31,2026-03-31
02351,Abington,MA,"Boston-Cambridge-Newton, MA-NH",Plymouth County,42.115764,-70.956597,594185,2464,3.06,4.98,1.83,-11.5,-1594,4059,148546,6.42,Hanover,MA,FALSE,FALSE,TRUE,2026-03-31,2026-03-31
02360,Plymouth,MA,"Boston-Cambridge-Newton, MA-NH",Plymouth County,41.882062,-70.631289,641608,2767,2.97,5.17,2,-9.55,-1430,4197,160402,19.54,Hanover,MA,FALSE,FALSE,FALSE,2026-03-31,2026-03-31
02364,Kingston,MA,"Boston-Cambridge-Newton, MA-NH",Plymouth County,41.987196,-70.741942,685540,2505,2.85,4.38,1.31,-10.94,-1750,4254,171385,10.42,Hanover,MA,FALSE,FALSE,FALSE,2026-03-31,2026-03-31
02368,Randolph,MA,"Boston-Cambridge-Newton, MA-NH",Norfolk County,42.178993,-71.052654,587018,2523,1.44,5.16,1.99,-11.16,-1528,4051,146755,8.18,Hingham,MA,FALSE,FALSE,TRUE,2026-03-31,2026-03-31
02370,Rockland,MA,"Boston-Cambridge-Newton, MA-NH",Plymouth County,42.129250999999996,-70.908736,550530,2449,2.25,5.34,2.14,-11.81,-1517,3966,137632,3.98,Hanover,MA,FALSE,TRUE,TRUE,2026-03-31,2026-03-31
02382,Whitman,MA,"Boston-Cambridge-Newton, MA-NH",Plymouth County,42.078974,-70.93939,546612,2442,2.48,5.36,2.16,-11.88,-1515,3957,136653,6.29,Hanover,MA,FALSE,FALSE,TRUE,2026-03-31,2026-03-31
02421,Lexington,MA,"Boston-Cambridge-Newton, MA-NH",Middlesex County,42.438547,-71.239573,1621138,3274,3.58,2.42,-0.39,-8.01,-3029,6304,405285,2.74,Arlington,MA,FALSE,TRUE,TRUE,2026-03-31,2026-03-31
02445,Brookline,MA,"Boston-Cambridge-Newton, MA-NH",Norfolk County,42.325483,-71.135045,1223137,4121,3.58,4.04,1.02,-5.13,-1463,5584,305784,1.36,Brookline,MA,TRUE,TRUE,TRUE,2026-03-31,2026-03-31
02446,Brookline,MA,"Boston-Cambridge-Newton, MA-NH",Norfolk County,42.343499,-71.122244,1113358,3942,-2.83,4.25,1.2,-5.35,-1390,5332,278339,0.14,Brookline,MA,TRUE,TRUE,TRUE,2026-03-31,2026-03-31
02451,Waltham,MA,"Boston-Cambridge-Newton, MA-NH",Middlesex County,42.40153,-71.252997,812666,3158,0.93,4.66,1.56,-7.63,-1446,4604,203167,3.67,Arlington,MA,FALSE,TRUE,TRUE,2026-03-31,2026-03-31
02452,Waltham,MA,"Boston-Cambridge-Newton, MA-NH",Middlesex County,42.395609,-71.219947,867197,2848,1.04,3.94,0.93,-9.04,-1830,4677,216799,2.6,Arlington,MA,FALSE,TRUE,TRUE,2026-03-31,2026-03-31
02453,Waltham,MA,"Boston-Cambridge-Newton, MA-NH",Middlesex County,42.368685,-71.241103,814605,3186,2.21,4.69,1.58,-7.5,-1425,4612,203651,1.71,West Newton,MA,TRUE,TRUE,TRUE,2026-03-31,2026-03-31
02458,Newton,MA,"Boston-Cambridge-Newton, MA-NH",Middlesex County,42.353585,-71.188192,1277246,3209,2.58,3.02,0.12,-7.95,-2369,5579,319312,1.62,West Newton,MA,TRUE,TRUE,TRUE,2026-03-31,2026-03-31
02459,Newton,MA,"Boston-Cambridge-Newton, MA-NH",Middlesex County,42.314779,-71.192017,1857759,3914,2.96,2.53,-0.3,-6.84,-2966,6880,464440,1.13,Newton,MA,TRUE,TRUE,TRUE,2026-03-31,2026-03-31
02460,Newton,MA,"Boston-Cambridge-Newton, MA-NH",Middlesex County,42.351824,-71.20849,1365584,3565,1.87,3.13,0.23,-7.04,-2244,5809,341396,0.58,West Newton,MA,TRUE,TRUE,TRUE,2026-03-31,2026-03-31
02464,Newton,MA,"Boston-Cambridge-Newton, MA-NH",Middlesex County,42.312975,-71.218882,959572,3600,3.31,4.5,1.42,-6.11,-1368,4968,239893,0.26,Newton,MA,TRUE,TRUE,TRUE,2026-03-31,2026-03-31
02466,Newton,MA,"Boston-Cambridge-Newton, MA-NH",Middlesex County,42.345514,-71.247661,1399069,3734,0.81,3.2,0.29,-6.64,-2167,5901,349767,1.47,West Newton,MA,TRUE,TRUE,TRUE,2026-03-31,2026-03-31
02467,Brookline,MA,"Boston-Cambridge-Newton, MA-NH",Norfolk County,42.314321,-71.152778,1284777,3747,2.24,3.5,0.54,-6.4,-1917,5664,321194,2.25,Boston,MA,FALSE,TRUE,TRUE,2026-03-31,2026-03-31
02472,Watertown,MA,"Boston-Cambridge-Newton, MA-NH",Middlesex County,42.369451,-71.177925,837819,2919,2.22,4.18,1.14,-8.73,-1707,4625,209455,2.26,Cambridge,MA,FALSE,TRUE,TRUE,2026-03-31,2026-03-31
02474,Arlington,MA,"Boston-Cambridge-Newton, MA-NH",Middlesex County,42.420949,-71.15637,1071057,2682,1.27,3,0.11,-9.6,-2399,5080,267764,1.68,Arlington,MA,TRUE,TRUE,TRUE,2026-03-31,2026-03-31
02476,Arlington,MA,"Boston-Cambridge-Newton, MA-NH",Middlesex County,42.41648,-71.173487,1097626,2909,3.53,3.18,0.27,-8.81,-2257,5165,274406,1,Arlington,MA,TRUE,TRUE,TRUE,2026-03-31,2026-03-31
02478,Belmont,MA,"Boston-Cambridge-Newton, MA-NH",Middlesex County,42.395317,-71.180284,1459511,3004,1.03,2.47,-0.35,-8.6,-2927,5932,364878,1.91,Cambridge,MA,TRUE,TRUE,TRUE,2026-03-31,2026-03-31
02481,Wellesley,MA,"Boston-Cambridge-Newton, MA-NH",Norfolk County,42.310514,-71.277769,2206938,3474,4.57,1.89,-0.86,-7.91,-4075,7550,551734,2.51,Needham,MA,FALSE,TRUE,TRUE,2026-03-31,2026-03-31
02492,Needham,MA,"Boston-Cambridge-Newton, MA-NH",Norfolk County,42.276483,-71.243714,1642160,3966,4.61,2.9,0.02,-6.45,-2472,6437,410540,1.21,Needham,MA,TRUE,TRUE,TRUE,2026-03-31,2026-03-31
02494,Needham,MA,"Boston-Cambridge-Newton, MA-NH",Norfolk County,42.299563,-71.231215,1347526,3413,5.33,3.04,0.14,-7.44,-2339,5751,336882,0.51,Needham,MA,TRUE,TRUE,TRUE,2026-03-31,2026-03-31
02601,Barnstable,MA,"Barnstable Town, MA",Barnstable County,41.661161,-70.293197,555973,2711,0.04,5.85,2.59,-10.02,-1300,4011,138993,0.95,Hyannis,MA,TRUE,TRUE,TRUE,2026-03-31,2026-03-31
02703,Attleboro,MA,"Providence-Warwick, RI-MA",Bristol County,41.931653,-71.294503,532890,2192,2.66,4.94,1.79,-13.7,-1704,3896,133223,9.52,Providence,RI,FALSE,FALSE,TRUE,2026-03-31,2026-03-31
02720,Fall River,MA,"Providence-Warwick, RI-MA",Bristol County,41.727137,-71.109858,453040,1805,1.4,4.78,1.66,-17.72,-1874,3679,113260,16.45,Providence,RI,FALSE,FALSE,FALSE,2026-03-31,2026-03-31
02721,Fall River,MA,"Providence-Warwick, RI-MA",Bristol County,41.674429,-71.148532,441178,1740,-0.37,4.73,1.62,-18.51,-1906,3646,110294,16.57,Providence,RI,FALSE,FALSE,FALSE,2026-03-31,2026-03-31
02723,Fall River,MA,"Providence-Warwick, RI-MA",Bristol County,41.692208,-71.132132,434192,1778,2.97,4.91,1.77,-18.34,-1858,3636,108548,16.56,Providence,RI,FALSE,FALSE,FALSE,2026-03-31,2026-03-31
02724,Fall River,MA,"Providence-Warwick, RI-MA",Bristol County,41.683068,-71.177888,431377,1938,1.34,5.39,2.19,-17.02,-1714,3651,107844,15.02,Providence,RI,FALSE,FALSE,FALSE,2026-03-31,2026-03-31
02740,New Bedford,MA,"Providence-Warwick, RI-MA",Bristol County,41.638171,-70.938398,419937,2110,2.2,6.03,2.75,-15.71,-1539,3650,104984,27.09,Providence,RI,FALSE,FALSE,FALSE,2026-03-31,2026-03-31
02744,New Bedford,MA,"Providence-Warwick, RI-MA",Bristol County,41.606252,-70.913632,444237,1775,3.14,4.79,1.67,-18.15,-1882,3657,111059,29.29,Providence,RI,FALSE,FALSE,FALSE,2026-03-31,2026-03-31
02746,New Bedford,MA,"Providence-Warwick, RI-MA",Bristol County,41.663913,-70.94757,425877,1968,2.25,5.54,2.32,-16.87,-1676,3643,106469,25.88,Providence,RI,FALSE,FALSE,FALSE,2026-03-31,2026-03-31
02760,North Attleboro,MA,"Providence-Warwick, RI-MA",Bristol County,41.972567,-71.334375,600108,2197,2.3,4.39,1.32,-13.14,-1840,4036,150027,8.56,Foxborough,MA,FALSE,FALSE,TRUE,2026-03-31,2026-03-31
02762,Plainville,MA,"Boston-Cambridge-Newton, MA-NH",Norfolk County,42.012838,-71.336188,605710,2072,1.67,4.1,1.07,-13.87,-1960,4032,151427,6.15,Foxborough,MA,FALSE,FALSE,TRUE,2026-03-31,2026-03-31
02766,Norton,MA,"Providence-Warwick, RI-MA",Bristol County,41.965341,-71.18178,586467,2894,2.94,5.92,2.65,-8.8,-1205,4098,146617,9.51,Foxborough,MA,FALSE,FALSE,TRUE,2026-03-31,2026-03-31
02780,Taunton,MA,"Providence-Warwick, RI-MA",Bristol County,41.909112,-71.118346,512317,1961,2.92,4.59,1.5,-15.58,-1862,3823,128079,14.51,Foxborough,MA,FALSE,FALSE,FALSE,2026-03-31,2026-03-31
02809,Bristol,RI,"Providence-Warwick, RI-MA",Bristol County,41.67573,-71.273331,598863,2369,-0.77,4.75,1.63,-12.07,-1687,4056,149716,11.32,Warwick,RI,FALSE,FALSE,FALSE,2026-03-31,2026-03-31
02816,Coventry,RI,"Providence-Warwick, RI-MA",Kent County,41.696499,-71.622662,446975,2045,3.41,5.49,2.28,-15.84,-1653,3698,111744,7.08,Warwick,RI,FALSE,FALSE,TRUE,2026-03-31,2026-03-31
02817,West Greenwich,RI,"Providence-Warwick, RI-MA",Kent County,41.628605,-71.658874,554645,2641,0.82,5.71,2.47,-10.5,-1359,3999,138661,10.59,Warwick,RI,FALSE,FALSE,FALSE,2026-03-31,2026-03-31
02818,East Greenwich,RI,"Providence-Warwick, RI-MA",Kent County,41.642919,-71.485719,713187,2174,4.16,3.66,0.68,-12.59,-2095,4269,178297,4.8,Warwick,RI,FALSE,TRUE,TRUE,2026-03-31,2026-03-31
02840,Newport,RI,"Providence-Warwick, RI-MA",Newport County,41.476681,-71.319627,941648,3298,8.99,4.2,1.16,-7.25,-1593,4891,235412,18.45,Warwick,RI,FALSE,FALSE,FALSE,2026-03-31,2026-03-31
02842,Middletown,RI,"Providence-Warwick, RI-MA",Newport County,41.517086,-71.273419,742991,3045,4.8,4.92,1.78,-8.07,-1399,4444,185748,17.44,Warwick,RI,FALSE,FALSE,FALSE,2026-03-31,2026-03-31
02852,North Kingstown,RI,"Providence-Warwick, RI-MA",Washington County,41.588565,-71.459811,626294,2535,7.43,4.86,1.73,-10.95,-1600,4135,156573,8.67,Warwick,RI,FALSE,FALSE,TRUE,2026-03-31,2026-03-31
02860,Pawtucket,RI,"Providence-Warwick, RI-MA",Providence County,41.870562,-71.388681,384597,1757,0.39,5.48,2.27,-19.76,-1773,3530,96149,3.55,Providence,RI,FALSE,TRUE,TRUE,2026-03-31,2026-03-31
02861,Pawtucket,RI,"Providence-Warwick, RI-MA",Providence County,41.878603,-71.353131,395601,1848,1.18,5.6,2.38,-18.6,-1717,3565,98900,4.79,Providence,RI,FALSE,TRUE,TRUE,2026-03-31,2026-03-31
02863,Central Falls,RI,"Providence-Warwick, RI-MA",Providence County,41.890064,-71.393481,377660,1607,1.52,5.11,1.94,-21.43,-1889,3496,94415,4.84,Providence,RI,FALSE,TRUE,TRUE,2026-03-31,2026-03-31
02864,Cumberland,RI,"Providence-Warwick, RI-MA",Providence County,41.96746,-71.420572,513654,2204,3.14,5.15,1.98,-13.79,-1653,3857,128413,10.2,Providence,RI,FALSE,FALSE,FALSE,2026-03-31,2026-03-31
02871,Portsmouth,RI,"Providence-Warwick, RI-MA",Newport County,41.586609,-71.259211,675456,3041,3.47,5.4,2.2,-8.01,-1262,4303,168864,14.63,Warwick,RI,FALSE,FALSE,FALSE,2026-03-31,2026-03-31
02878,Tiverton,RI,"Providence-Warwick, RI-MA",Newport County,41.606983,-71.182634,546999,2450,2.84,5.37,2.18,-11.82,-1509,3959,136750,17.33,Warwick,RI,FALSE,FALSE,FALSE,2026-03-31,2026-03-31
02879,South Kingstown,RI,"Providence-Warwick, RI-MA",Washington County,41.428836,-71.538376,722053,2677,6.12,4.45,1.37,-9.94,-1675,4353,180513,19.77,Warwick,RI,FALSE,FALSE,FALSE,2026-03-31,2026-03-31
02882,Narragansett,RI,"Providence-Warwick, RI-MA",Washington County,41.417088,-71.47227,852993,3125,5.3,4.4,1.32,-7.83,-1559,4684,213248,20.42,Warwick,RI,FALSE,FALSE,FALSE,2026-03-31,2026-03-31
02885,Warren,RI,"Providence-Warwick, RI-MA",Bristol County,41.726404,-71.259027,537216,1936,0.08,4.33,1.26,-15.44,-1935,3871,134304,9.89,Providence,RI,FALSE,FALSE,TRUE,2026-03-31,2026-03-31
02891,Westerly,RI,"Providence-Warwick, RI-MA",Washington County,41.357774,-71.789616,621593,2062,8.12,3.98,0.96,-13.8,-2001,4064,155398,29.07,Warwick,RI,FALSE,FALSE,FALSE,2026-03-31,2026-03-31
02893,West Warwick,RI,"Providence-Warwick, RI-MA",Kent County,41.679601,-71.521114,397248,1724,3.82,5.21,2.03,-19.72,-1828,3552,99312,2.87,Warwick,RI,FALSE,TRUE,TRUE,2026-03-31,2026-03-31
02895,Woonsocket,RI,"Providence-Warwick, RI-MA",Providence County,42.001708,-71.499947,381052,1604,-0.67,5.05,1.89,-21.36,-1899,3503,95263,10.98,Milford,MA,FALSE,FALSE,FALSE,2026-03-31,2026-03-31
02903,Providence,RI,"Providence-Warwick, RI-MA",Providence County,41.819233,-71.410245,438243,2322,0.24,6.36,3.03,-13.62,-1393,3715,109561,0.35,Providence,RI,TRUE,TRUE,TRUE,2026-03-31,2026-03-31
02904,Providence,RI,"Providence-Warwick, RI-MA",Providence County,41.858334,-71.436294,394233,1850,1.43,5.63,2.4,-18.61,-1712,3562,98558,3.11,Providence,RI,FALSE,TRUE,TRUE,2026-03-31,2026-03-31
02905,Providence,RI,"Providence-Warwick, RI-MA",Providence County,41.785273,-71.396227,418328,1952,2.01,5.6,2.37,-17.15,-1674,3626,104582,2.46,Providence,RI,FALSE,TRUE,TRUE,2026-03-31,2026-03-31
02906,Providence,RI,"Providence-Warwick, RI-MA",Providence County,41.839468,-71.389175,792913,2371,5.98,3.59,0.62,-11.3,-2090,4461,198228,1.51,Providence,RI,TRUE,TRUE,TRUE,2026-03-31,2026-03-31
02907,Providence,RI,"Providence-Warwick, RI-MA",Providence County,41.798593,-71.42463,392374,1891,2.37,5.78,2.53,-18.27,-1673,3564,98094,1.86,Providence,RI,TRUE,TRUE,TRUE,2026-03-31,2026-03-31
02908,Providence,RI,"Providence-Warwick, RI-MA",Providence County,41.839025,-71.43925,411809,2243,2.74,6.54,3.19,-14.64,-1407,3650,102952,2.24,Providence,RI,FALSE,TRUE,TRUE,2026-03-31,2026-03-31
02909,Providence,RI,"Providence-Warwick, RI-MA",Providence County,41.818122,-71.451776,378996,2116,2.11,6.7,3.33,-16.38,-1449,3565,94749,2.49,Providence,RI,FALSE,TRUE,TRUE,2026-03-31,2026-03-31
02910,Cranston,RI,"Providence-Warwick, RI-MA",Providence County,41.774999,-71.435594,400047,2081,-1.89,6.24,2.93,-16.32,-1523,3604,100012,3.55,Providence,RI,FALSE,TRUE,TRUE,2026-03-31,2026-03-31
02911,North Providence,RI,"Providence-Warwick, RI-MA",Providence County,41.854888,-71.472812,413399,1777,0.58,5.16,1.99,-18.82,-1816,3593,103350,4.28,Providence,RI,FALSE,TRUE,TRUE,2026-03-31,2026-03-31
02914,East Providence,RI,"Providence-Warwick, RI-MA",Providence County,41.813577,-71.366468,421475,1970,0.31,5.61,2.38,-16.93,-1665,3635,105369,1.97,Providence,RI,TRUE,TRUE,TRUE,2026-03-31,2026-03-31
02915,East Providence,RI,"Providence-Warwick, RI-MA",Providence County,41.772177,-71.354407,437766,1894,2.31,5.19,2.02,-17.28,-1765,3659,109442,4.19,Providence,RI,FALSE,TRUE,TRUE,2026-03-31,2026-03-31
02919,Johnston,RI,"Providence-Warwick, RI-MA",Providence County,41.82744,-71.519879,445376,1719,1.28,4.63,1.53,-18.6,-1933,3652,111344,6.01,Providence,RI,FALSE,FALSE,TRUE,2026-03-31,2026-03-31
02920,Cranston,RI,"Providence-Warwick, RI-MA",Providence County,41.767344,-71.465508,444071,2108,-0.13,5.7,2.45,-15.36,-1592,3700,111018,3.96,Warwick,RI,FALSE,TRUE,TRUE,2026-03-31,2026-03-31
02921,Cranston,RI,"Providence-Warwick, RI-MA",Providence County,41.762906,-71.514814,635478,2195,3.52,4.14,1.11,-12.91,-1915,4110,158870,3.77,Warwick,RI,FALSE,TRUE,TRUE,2026-03-31,2026-03-31
03038,Derry,NH,"Boston-Cambridge-Newton, MA-NH",Rockingham County,42.892761,-71.276763,493705,2101,2.94,5.11,1.94,-14.76,-1701,3802,123426,10.98,Bedford,NH,FALSE,FALSE,FALSE,2026-03-31,2026-03-31
03045,Goffstown,NH,"Manchester-Nashua, NH",Hillsborough County,43.021515,-71.563462,508749,1725,2.56,4.07,1.04,-17.35,-2060,3785,127187,6.4,Bedford,NH,FALSE,FALSE,TRUE,2026-03-31,2026-03-31
03051,Hudson,NH,"Manchester-Nashua, NH",Hillsborough County,42.760497,-71.409393,534305,2575,1.72,5.78,2.53,-11.02,-1373,3948,133576,3.91,Nashua,NH,FALSE,TRUE,TRUE,2026-03-31,2026-03-31
03054,Merrimack,NH,"Manchester-Nashua, NH",Hillsborough County,42.852034,-71.519876,529465,2477,3.39,5.61,2.38,-11.72,-1448,3926,132366,7.35,Bedford,NH,FALSE,FALSE,TRUE,2026-03-31,2026-03-31
03055,Milford,NH,"Manchester-Nashua, NH",Hillsborough County,42.818645,-71.673354,508524,1908,2.43,4.5,1.42,-16.02,-1900,3808,127131,13.63,Bedford,NH,FALSE,FALSE,FALSE,2026-03-31,2026-03-31
03060,Nashua,NH,"Manchester-Nashua, NH",Hillsborough County,42.741087,-71.458266,464031,2127,3.45,5.5,2.29,-14.93,-1616,3744,116008,2.5,Nashua,NH,FALSE,TRUE,TRUE,2026-03-31,2026-03-31
03062,Nashua,NH,"Manchester-Nashua, NH",Hillsborough County,42.722323,-71.501176,542674,2298,3.46,5.08,1.92,-12.88,-1632,3930,135668,3.34,Nashua,NH,FALSE,TRUE,TRUE,2026-03-31,2026-03-31
03063,Nashua,NH,"Manchester-Nashua, NH",Hillsborough County,42.7821,-71.518366,460171,2180,4.41,5.68,2.44,-14.56,-1563,3742,115043,6.53,Nashua,NH,FALSE,FALSE,TRUE,2026-03-31,2026-03-31
03064,Nashua,NH,"Manchester-Nashua, NH",Hillsborough County,42.77938,-71.47492,521982,2186,3.62,5.02,1.87,-13.85,-1686,3872,130495,5.27,Nashua,NH,FALSE,FALSE,TRUE,2026-03-31,2026-03-31
03079,Salem,NH,"Boston-Cambridge-Newton, MA-NH",Rockingham County,42.788267,-71.221725,597165,2939,2.85,5.91,2.64,-8.52,-1187,4127,149291,12.31,Nashua,NH,FALSE,FALSE,FALSE,2026-03-31,2026-03-31
03101,Manchester,NH,"Manchester-Nashua, NH",Hillsborough County,42.989027,-71.466111,433515,2285,0.42,6.32,3,-14,-1416,3701,108379,2.5,Bedford,NH,FALSE,TRUE,TRUE,2026-03-31,2026-03-31
03102,Manchester,NH,"Manchester-Nashua, NH",Hillsborough County,43.011907,-71.491063,418651,2030,1.63,5.82,2.56,-16.44,-1606,3637,104663,4.08,Bedford,NH,FALSE,TRUE,TRUE,2026-03-31,2026-03-31
03103,Manchester,NH,"Manchester-Nashua, NH",Hillsborough County,42.956116,-71.442385,415280,1857,1.44,5.37,2.17,-18.06,-1750,3607,103820,1.77,Bedford,NH,TRUE,TRUE,TRUE,2026-03-31,2026-03-31
03104,Manchester,NH,"Manchester-Nashua, NH",Hillsborough County,43.009552,-71.439782,475355,1879,1.64,4.74,1.63,-16.74,-1856,3735,118839,4.3,Bedford,NH,FALSE,TRUE,TRUE,2026-03-31,2026-03-31
03106,Hooksett,NH,"Concord, NH",Merrimack County,43.081242,-71.446616,520065,2473,2.83,5.71,2.46,-11.81,-1433,3905,130016,8.94,Bedford,NH,FALSE,FALSE,TRUE,2026-03-31,2026-03-31
03110,Bedford,NH,"Manchester-Nashua, NH",Hillsborough County,42.935584,-71.536871,762283,2883,2.77,4.54,1.45,-8.89,-1581,4463,190571,3.27,Bedford,NH,FALSE,TRUE,TRUE,2026-03-31,2026-03-31
03246,Laconia,NH,"Laconia, NH",Belknap County,43.576535,-71.482263,434142,1690,2.33,4.67,1.56,-19.1,-1935,3625,108536,43.03,Bedford,NH,FALSE,FALSE,FALSE,2026-03-31,2026-03-31
03301,Concord,NH,"Concord, NH",Merrimack County,43.238596,-71.556261,461394,1849,4,4.81,1.68,-17.21,-1853,3702,115349,20.08,Bedford,NH,FALSE,FALSE,FALSE,2026-03-31,2026-03-31
03303,Boscawen,NH,"Concord, NH",Merrimack County,43.311717,-71.665381,422919,1625,3.88,4.61,1.51,-19.94,-1968,3593,105730,26.49,Bedford,NH,FALSE,FALSE,FALSE,2026-03-31,2026-03-31
03431,Keene,NH,"Keene, NH",Cheshire County,42.969069,-72.301965,342888,1922,4.23,6.73,3.35,-19.28,-1543,3465,85722,41.72,Bedford,NH,FALSE,FALSE,FALSE,2026-03-31,2026-03-31
03743,Claremont,NH,"Lebanon, NH-VT",Sullivan County,43.360727,-72.326929,277238,1543,4.53,6.68,3.31,-26.83,-1736,3279,69309,51.23,Bedford,NH,FALSE,FALSE,FALSE,2026-03-31,2026-03-31
03766,Lebanon,NH,"Lebanon, NH-VT",Grafton County,43.632568,-72.234816,441549,2397,2.94,6.51,3.17,-12.96,-1335,3732,110387,60.43,Bedford,NH,FALSE,FALSE,FALSE,2026-03-31,2026-03-31
03782,Sunapee,NH,"Lebanon, NH-VT",Sullivan County,43.390095,-72.093136,678814,2475,0.77,4.38,1.31,-11.12,-1761,4236,169704,43.27,Bedford,NH,FALSE,FALSE,FALSE,2026-03-31,2026-03-31
03801,Portsmouth,NH,"Boston-Cambridge-Newton, MA-NH",Rockingham County,43.074812,-70.805443,809401,2579,4.1,3.82,0.83,-10.29,-1943,4522,202350,1.39,Portsmouth,NH,TRUE,TRUE,TRUE,2026-03-31,2026-03-31
03820,Dover,NH,"Boston-Cambridge-Newton, MA-NH",Strafford County,43.18636,-70.883623,537679,2244,2.21,5.01,1.86,-13.3,-1669,3912,134420,7.63,Portsmouth,NH,FALSE,FALSE,TRUE,2026-03-31,2026-03-31
03833,Exeter,NH,"Boston-Cambridge-Newton, MA-NH",Rockingham County,42.97878,-70.97968,651090,2349,2.4,4.33,1.27,-11.93,-1813,4162,162772,12.11,Portsmouth,NH,FALSE,FALSE,FALSE,2026-03-31,2026-03-31
03835,Farmington,NH,"Boston-Cambridge-Newton, MA-NH",Strafford County,43.366924,-71.062503,416791,1946,7.34,5.6,2.37,-17.23,-1676,3622,104198,23.01,Portsmouth,NH,FALSE,FALSE,FALSE,2026-03-31,2026-03-31
03842,Hampton,NH,"Boston-Cambridge-Newton, MA-NH",Rockingham County,42.939601,-70.836728,618498,2038,2.73,3.95,0.94,-13.97,-2016,4054,154624,10.87,Portsmouth,NH,FALSE,FALSE,FALSE,2026-03-31,2026-03-31
03857,Newmarket,NH,"Boston-Cambridge-Newton, MA-NH",Rockingham County,43.070913,-70.946939,554216,2136,5.13,4.63,1.52,-13.89,-1797,3933,138554,7.61,Portsmouth,NH,FALSE,FALSE,TRUE,2026-03-31,2026-03-31
03867,Rochester,NH,"Boston-Cambridge-Newton, MA-NH",Strafford County,43.301679,-70.991769,392505,1961,3.14,5.99,2.71,-17.61,-1612,3573,98126,17.28,Portsmouth,NH,FALSE,FALSE,FALSE,2026-03-31,2026-03-31
03878,Somersworth,NH,"Boston-Cambridge-Newton, MA-NH",Strafford County,43.253476,-70.887944,438894,1775,2.79,4.85,1.72,-18.27,-1871,3646,109723,11.85,Portsmouth,NH,FALSE,FALSE,FALSE,2026-03-31,2026-03-31
03904,Kittery,ME,"Portland-South Portland, ME",York County,43.109963,-70.733833,637564,2439,3.74,4.59,1.49,-11.47,-1707,4146,159391,3.48,Portsmouth,NH,FALSE,TRUE,TRUE,2026-03-31,2026-03-31
04005,Biddeford,ME,"Portland-South Portland, ME",York County,43.492102,-70.486566,499636,1975,1.28,4.74,1.63,-15.63,-1823,3798,124909,16.15,Portland,ME,FALSE,FALSE,FALSE,2026-03-31,2026-03-31
04011,Brunswick,ME,"Portland-South Portland, ME",Cumberland County,43.896431,-69.973487,485700,2194,0.42,5.42,2.22,-14.15,-1603,3798,121425,21.77,Portland,ME,FALSE,FALSE,FALSE,2026-03-31,2026-03-31
04032,Freeport,ME,"Portland-South Portland, ME",Cumberland County,43.844826,-70.089953,677379,2648,3.52,4.69,1.58,-10.17,-1608,4256,169345,15.36,Portland,ME,FALSE,FALSE,FALSE,2026-03-31,2026-03-31
04038,Gorham,ME,"Portland-South Portland, ME",Cumberland County,43.701353,-70.462982,534999,2650,-0.01,5.94,2.67,-10.49,-1310,3960,133750,10.28,Portland,ME,FALSE,FALSE,FALSE,2026-03-31,2026-03-31
04064,Old Orchard Beach,ME,"Portland-South Portland, ME",York County,43.52506,-70.388252,500700,2079,2.22,4.98,1.84,-14.85,-1735,3814,125175,11.29,Portland,ME,FALSE,FALSE,FALSE,2026-03-31,2026-03-31
04072,Saco,ME,"Portland-South Portland, ME",York County,43.550411,-70.466341,520339,2210,1.65,5.1,1.93,-13.69,-1662,3872,130085,12.69,Portland,ME,FALSE,FALSE,FALSE,2026-03-31,2026-03-31
04073,Sanford,ME,"Portland-South Portland, ME",York County,43.411936,-70.737326,367549,1692,0.58,5.52,2.31,-20.92,-1794,3486,91887,22.15,Portsmouth,NH,FALSE,FALSE,FALSE,2026-03-31,2026-03-31
04074,Scarborough,ME,"Portland-South Portland, ME",Cumberland County,43.589627,-70.366191,681807,2842,0.37,5,1.85,-9.1,-1448,4290,170452,7.12,Portland,ME,FALSE,FALSE,TRUE,2026-03-31,2026-03-31
04092,Westbrook,ME,"Portland-South Portland, ME",Cumberland County,43.70792,-70.352602,449274,2317,-0.36,6.19,2.88,-13.56,-1421,3738,112318,5.43,Portland,ME,FALSE,FALSE,TRUE,2026-03-31,2026-03-31
04096,Yarmouth,ME,"Portland-South Portland, ME",Cumberland County,43.788137,-70.156478,752933,2391,0.99,3.81,0.82,-11.32,-1989,4380,188233,10.26,Portland,ME,FALSE,FALSE,FALSE,2026-03-31,2026-03-31
04101,Portland,ME,"Portland-South Portland, ME",Cumberland County,43.662607,-70.257949,653878,2256,-0.2,4.14,1.1,-12.45,-1900,4156,163470,0.34,Portland,ME,TRUE,TRUE,TRUE,2026-03-31,2026-03-31
04102,Portland,ME,"Portland-South Portland, ME",Cumberland County,43.654353,-70.297611,544099,2214,-0.48,4.88,1.75,-13.45,-1708,3922,136025,1.73,Portland,ME,TRUE,TRUE,TRUE,2026-03-31,2026-03-31
04103,Portland,ME,"Portland-South Portland, ME",Cumberland County,43.695422,-70.288652,528280,2485,-0.52,5.65,2.41,-11.67,-1439,3924,132070,2.61,Portland,ME,FALSE,TRUE,TRUE,2026-03-31,2026-03-31
04106,South Portland,ME,"Portland-South Portland, ME",Cumberland County,43.631402,-70.285989,518074,2429,2.01,5.63,2.4,-12.13,-1466,3896,129519,2.36,Portland,ME,FALSE,TRUE,TRUE,2026-03-31,2026-03-31
04210,Auburn,ME,"Lewiston-Auburn, ME",Androscoggin County,44.084537,-70.249649,320975,1607,1.28,6.01,2.73,-23.65,-1771,3378,80244,29.22,Portland,ME,FALSE,FALSE,FALSE,2026-03-31,2026-03-31
04240,Lewiston,ME,"Lewiston-Auburn, ME",Androscoggin County,44.089513,-70.172095,296121,1436,2.28,5.82,2.56,-27.04,-1868,3304,74030,29.91,Portland,ME,FALSE,FALSE,FALSE,2026-03-31,2026-03-31
04330,Augusta,ME,"Augusta-Waterville, ME",Kennebec County,44.35191,-69.747615,285963,1561,-1.18,6.55,3.2,-26.05,-1738,3299,71491,54.16,Portland,ME,FALSE,FALSE,FALSE,2026-03-31,2026-03-31
04401,Bangor,ME,"Bangor, ME",Penobscot County,44.848517,-68.850405,299379,1493,1.04,5.98,2.71,-26.13,-1825,3318,74845,107.8,Portland,ME,FALSE,FALSE,FALSE,2026-03-31,2026-03-31
04412,Brewer,ME,"Bangor, ME",Penobscot County,44.784461,-68.734559,296546,1556,1.17,6.3,2.98,-25.5,-1764,3321,74136,108.42,Portland,ME,FALSE,FALSE,FALSE,2026-03-31,2026-03-31
04444,Hampden,ME,"Bangor, ME",Penobscot County,44.72898,-68.949964,345249,1150,1.91,4,0.98,-27.55,-2219,3369,86312,98.38,Portland,ME,FALSE,FALSE,FALSE,2026-03-31,2026-03-31
04468,Old Town,ME,"Bangor, ME",Penobscot County,45.028344,-68.719249,244512,1524,-0.29,7.48,4.01,-29.52,-1684,3208,61128,121.43,Portland,ME,FALSE,FALSE,FALSE,2026-03-31,2026-03-31
04473,Orono,ME,"Bangor, ME",Penobscot County,44.88168,-68.738642,300414,1900,-0.65,7.59,4.1,-21.02,-1473,3373,75103,113.15,Portland,ME,FALSE,FALSE,FALSE,2026-03-31,2026-03-31
04530,Bath,ME,"Portland-South Portland, ME",Sagadahoc County,43.887982,-69.826723,403312,1833,-0.35,5.45,2.25,-18.55,-1746,3579,100828,26.86,Portland,ME,FALSE,FALSE,FALSE,2026-03-31,2026-03-31
04841,Rockland,ME,NA,Knox County,44.134088,-69.132629,340316,1985,-5.89,7,3.59,-18.66,-1482,3468,85079,65.12,Portland,ME,FALSE,FALSE,FALSE,2026-03-31,2026-03-31
04901,Winslow,ME,"Augusta-Waterville, ME",Kennebec County,44.541078,-69.573081,264544,1350,1.16,6.12,2.83,-30.41,-1877,3227,66136,69.77,Portland,ME,FALSE,FALSE,FALSE,2026-03-31,2026-03-31
05001,Hartford,VT,"Lebanon, NH-VT",Windsor County,43.683726,-72.376002,401500,1938,6.17,5.79,2.54,-17.63,-1651,3589,100375,67.07,South Burlington,VT,FALSE,FALSE,FALSE,2026-03-31,2026-03-31
05201,Bennington,VT,"Bennington, VT",Bennington County,42.869216,-73.128532,246775,1406,0.51,6.84,3.45,-31.11,-1791,3197,61694,32.26,Halfmoon,NY,FALSE,FALSE,FALSE,2026-03-31,2026-03-31
05301,Brattleboro,VT,NA,Windham County,42.838685,-72.659985,334448,1717,-2.5,6.16,2.86,-21.83,-1704,3420,83612,33.7,Hadley,MA,FALSE,FALSE,FALSE,2026-03-31,2026-03-31
05401,Burlington,VT,"Burlington-South Burlington, VT",Chittenden County,44.475181,-73.217857,556482,2060,-1.34,4.44,1.37,-14.38,-1867,3928,139120,2.01,South Burlington,VT,FALSE,TRUE,TRUE,2026-03-31,2026-03-31
05403,South Burlington,VT,"Burlington-South Burlington, VT",Chittenden County,44.444866,-73.173468,480517,2533,0.01,6.33,3,-11.57,-1298,3831,120129,1.34,South Burlington,VT,TRUE,TRUE,TRUE,2026-03-31,2026-03-31
05404,Winooski,VT,"Burlington-South Burlington, VT",Chittenden County,44.495587,-73.184857,425753,2186,0.12,6.16,2.86,-14.96,-1486,3672,106438,2.22,South Burlington,VT,FALSE,TRUE,TRUE,2026-03-31,2026-03-31
05446,Colchester,VT,"Burlington-South Burlington, VT",Chittenden County,44.554142,-73.225492,481059,2225,0.79,5.55,2.33,-13.96,-1567,3792,120265,6.64,South Burlington,VT,FALSE,FALSE,TRUE,2026-03-31,2026-03-31
05452,Essex,VT,"Burlington-South Burlington, VT",Chittenden County,44.527171,-73.064704,478677,1950,0.86,4.89,1.75,-16.13,-1801,3751,119669,7.2,South Burlington,VT,FALSE,FALSE,TRUE,2026-03-31,2026-03-31
05495,Williston,VT,"Burlington-South Burlington, VT",Chittenden County,44.429166,-73.09631,585390,2216,4.08,4.54,1.45,-13.12,-1792,4008,146347,4.78,South Burlington,VT,FALSE,TRUE,TRUE,2026-03-31,2026-03-31
05641,Barre,VT,"Barre, VT",Washington County,44.18548,-72.453593,307361,1390,0.28,5.43,2.22,-26.93,-1931,3321,76840,40.74,South Burlington,VT,FALSE,FALSE,FALSE,2026-03-31,2026-03-31
06002,Bloomfield,CT,"Hartford-East Hartford-Middletown, CT",Hartford County,41.846675,-72.736981,355137,2435,3.52,8.23,4.66,-13.53,-1122,3557,88784,8.58,West Hartford,CT,FALSE,FALSE,TRUE,2026-03-31,2026-03-31
06010,Bristol,CT,"Hartford-East Hartford-Middletown, CT",Hartford County,41.681578,-72.940749,338745,1598,5.08,5.66,2.42,-22.98,-1816,3414,84686,9.86,West Hartford,CT,FALSE,FALSE,TRUE,2026-03-31,2026-03-31
06029,Ellington,CT,"Hartford-East Hartford-Middletown, CT",Tolland County,41.914149,-72.445568,430767,1695,3.67,4.72,1.61,-19.13,-1923,3618,107692,9.4,Manchester,CT,FALSE,FALSE,TRUE,2026-03-31,2026-03-31
06032,Farmington,CT,"Hartford-East Hartford-Middletown, CT",Hartford County,41.731051,-72.857096,479840,2500,6.46,6.25,2.94,-11.84,-1325,3825,119960,5.13,West Hartford,CT,FALSE,FALSE,TRUE,2026-03-31,2026-03-31
06033,Glastonbury,CT,"Hartford-East Hartford-Middletown, CT",Hartford County,41.707463,-72.538932,532115,2285,6.37,5.15,1.98,-13.06,-1621,3906,133029,3.17,Glastonbury,CT,FALSE,TRUE,TRUE,2026-03-31,2026-03-31
06037,Berlin,CT,"Hartford-East Hartford-Middletown, CT",Hartford County,41.605451,-72.778497,446713,2400,5.69,6.45,3.11,-12.89,-1343,3743,111678,8.22,West Hartford,CT,FALSE,FALSE,TRUE,2026-03-31,2026-03-31
06040,Manchester,CT,"Hartford-East Hartford-Middletown, CT",Hartford County,41.761415,-72.525608,334540,1748,4.5,6.27,2.96,-21.48,-1676,3425,83635,3.54,Manchester,CT,FALSE,TRUE,TRUE,2026-03-31,2026-03-31
06042,Manchester,CT,"Hartford-East Hartford-Middletown, CT",Hartford County,41.802645,-72.521039,313499,2035,3.89,7.79,4.28,-18.91,-1383,3418,78375,1.91,Manchester,CT,TRUE,TRUE,TRUE,2026-03-31,2026-03-31
06051,New Britain,CT,"Hartford-East Hartford-Middletown, CT",Hartford County,41.665179,-72.769865,280734,1473,7.91,6.3,2.98,-27.54,-1804,3277,70183,4.07,West Hartford,CT,FALSE,TRUE,TRUE,2026-03-31,2026-03-31
06053,New Britain,CT,"Hartford-East Hartford-Middletown, CT",Hartford County,41.690145,-72.79194,298226,1668,4.9,6.71,3.34,-24.01,-1671,3339,74556,2.89,West Hartford,CT,FALSE,TRUE,TRUE,2026-03-31,2026-03-31
06066,Vernon Rockville,CT,"Hartford-East Hartford-Middletown, CT",Tolland County,41.837561,-72.45904,335054,1814,3.89,6.5,3.15,-20.73,-1620,3434,83764,5.51,Manchester,CT,FALSE,FALSE,TRUE,2026-03-31,2026-03-31
06067,Rocky Hill,CT,"Hartford-East Hartford-Middletown, CT",Hartford County,41.656624,-72.661779,402105,1847,5.29,5.51,2.29,-18.45,-1731,3578,100526,5.06,Glastonbury,CT,FALSE,FALSE,TRUE,2026-03-31,2026-03-31
06070,Simsbury,CT,"Hartford-East Hartford-Middletown, CT",Hartford County,41.874682,-72.813825,525598,1964,5.81,4.48,1.4,-15.38,-1887,3851,131399,10.84,West Hartford,CT,FALSE,FALSE,FALSE,2026-03-31,2026-03-31
06074,South Windsor,CT,"Hartford-East Hartford-Middletown, CT",Hartford County,41.83809,-72.577836,432160,2246,4.34,6.24,2.92,-14.35,-1447,3693,108040,2.4,Manchester,CT,FALSE,TRUE,TRUE,2026-03-31,2026-03-31
06082,Enfield,CT,"Hartford-East Hartford-Middletown, CT",Hartford County,41.983993,-72.555553,327556,1948,4.48,7.14,3.71,-19.47,-1488,3436,81889,12.25,Manchester,CT,FALSE,FALSE,FALSE,2026-03-31,2026-03-31
06089,Simsbury,CT,"Hartford-East Hartford-Middletown, CT",Hartford County,41.835348,-72.824272,475360,2563,9.42,6.47,3.13,-11.37,-1261,3824,118840,8.45,West Hartford,CT,FALSE,FALSE,TRUE,2026-03-31,2026-03-31
06095,Windsor,CT,"Hartford-East Hartford-Middletown, CT",Hartford County,41.873832,-72.676805,365309,2016,4.08,6.62,3.26,-17.69,-1508,3524,91327,7.69,Manchester,CT,FALSE,FALSE,TRUE,2026-03-31,2026-03-31
06096,Windsor Locks,CT,"Hartford-East Hartford-Middletown, CT",Hartford County,41.92779,-72.651616,327942,2033,8.78,7.44,3.97,-18.49,-1415,3448,81985,9.66,Manchester,CT,FALSE,FALSE,TRUE,2026-03-31,2026-03-31
06098,Winsted,CT,"Torrington, CT",Litchfield County,41.927213,-73.109336,303122,1366,-0.4,5.41,2.2,-27.48,-1944,3310,75781,22.92,West Hartford,CT,FALSE,FALSE,FALSE,2026-03-31,2026-03-31
06105,Hartford,CT,"Hartford-East Hartford-Middletown, CT",Hartford County,41.773262,-72.704433,110899,1287,2.08,13.92,9.61,-62.3,-1612,2899,27725,4.41,West Hartford,CT,FALSE,TRUE,TRUE,2026-03-31,2026-03-31
06106,Hartford,CT,"Hartford-East Hartford-Middletown, CT",Hartford County,41.748587,-72.696006,226052,1517,4.46,8.05,4.51,-31.32,-1652,3169,56513,3.64,West Hartford,CT,FALSE,TRUE,TRUE,2026-03-31,2026-03-31
06107,West Hartford,CT,"Hartford-East Hartford-Middletown, CT",Hartford County,41.75202,-72.759365,587163,2479,6.14,5.07,1.91,-11.44,-1567,4046,146791,1.97,West Hartford,CT,TRUE,TRUE,TRUE,2026-03-31,2026-03-31
06108,East Hartford,CT,"Hartford-East Hartford-Middletown, CT",Hartford County,41.780375,-72.623945,285490,1509,5.11,6.34,3.02,-26.76,-1783,3291,71372,3.87,Manchester,CT,FALSE,TRUE,TRUE,2026-03-31,2026-03-31
06109,Wethersfield,CT,"Hartford-East Hartford-Middletown, CT",Hartford County,41.702484,-72.669301,424379,2202,9.08,6.23,2.92,-14.83,-1469,3671,106095,3.66,Glastonbury,CT,FALSE,TRUE,TRUE,2026-03-31,2026-03-31
06110,West Hartford,CT,"Hartford-East Hartford-Middletown, CT",Hartford County,41.732455,-72.733749,357041,2775,4.07,9.33,5.61,-9.96,-830,3605,89260,1.4,West Hartford,CT,TRUE,TRUE,TRUE,2026-03-31,2026-03-31
06111,Newington,CT,"Hartford-East Hartford-Middletown, CT",Hartford County,41.686764,-72.730593,368946,2533,4.94,8.24,4.67,-12.38,-1065,3598,92236,2.9,West Hartford,CT,FALSE,TRUE,TRUE,2026-03-31,2026-03-31
06112,Hartford,CT,"Hartford-East Hartford-Middletown, CT",Hartford County,41.793336,-72.695823,254473,1575,7.39,7.43,3.96,-27.96,-1660,3235,63618,5.8,West Hartford,CT,FALSE,FALSE,TRUE,2026-03-31,2026-03-31
06114,Hartford,CT,"Hartford-East Hartford-Middletown, CT",Hartford County,41.740854,-72.670695,221287,1634,6.18,8.86,5.21,-29.83,-1540,3174,55322,4.12,Glastonbury,CT,FALSE,TRUE,TRUE,2026-03-31,2026-03-31
06117,West Hartford,CT,"Hartford-East Hartford-Middletown, CT",Hartford County,41.789101,-72.763127,556844,3200,5.55,6.9,3.5,-6.75,-877,4077,139211,4.54,West Hartford,CT,FALSE,TRUE,TRUE,2026-03-31,2026-03-31
06118,East Hartford,CT,"Hartford-East Hartford-Middletown, CT",Hartford County,41.748711,-72.609519,310499,1558,3.53,6.02,2.74,-24.73,-1792,3350,77625,2.49,Glastonbury,CT,FALSE,TRUE,TRUE,2026-03-31,2026-03-31
06119,West Hartford,CT,"Hartford-East Hartford-Middletown, CT",Hartford County,41.763521,-72.727113,424528,2160,6.05,6.11,2.81,-15.2,-1505,3666,106132,3.19,West Hartford,CT,FALSE,TRUE,TRUE,2026-03-31,2026-03-31
06120,Hartford,CT,"Hartford-East Hartford-Middletown, CT",Hartford County,41.787198,-72.664837,218447,1792,11.32,9.84,6.06,-27.4,-1397,3188,54612,5.68,Manchester,CT,FALSE,FALSE,TRUE,2026-03-31,2026-03-31
06226,Willimantic,CT,"Worcester, MA-CT",Windham County,41.708239,-72.208548,266440,1950,1.37,8.78,5.14,-21.86,-1359,3309,66610,19.24,Manchester,CT,FALSE,FALSE,FALSE,2026-03-31,2026-03-31
06239,Killingly,CT,"Worcester, MA-CT",Windham County,41.79404,-71.854535,348864,1550,3.89,5.33,2.14,-23.08,-1879,3429,87216,19.76,Warwick,RI,FALSE,FALSE,FALSE,2026-03-31,2026-03-31
06320,New London,CT,"Norwich-New London, CT",New London County,41.348837,-72.102029,312559,1635,3.72,6.28,2.96,-23.71,-1729,3364,78140,36.02,Glastonbury,CT,FALSE,FALSE,FALSE,2026-03-31,2026-03-31
06333,East Lyme,CT,"Norwich-New London, CT",New London County,41.386032,-72.229092,538692,2382,7.13,5.31,2.12,-12.33,-1550,3932,134673,29.65,Glastonbury,CT,FALSE,FALSE,FALSE,2026-03-31,2026-03-31
06340,Groton,CT,"Norwich-New London, CT",New London County,41.354409,-72.040266,371578,1967,3.98,6.35,3.03,-18.03,-1563,3530,92895,37.82,Warwick,RI,FALSE,FALSE,FALSE,2026-03-31,2026-03-31
06355,Groton,CT,"Norwich-New London, CT",New London County,41.365673,-71.97196,569523,2275,5.97,4.79,1.67,-12.85,-1708,3983,142381,34.68,Warwick,RI,FALSE,FALSE,FALSE,2026-03-31,2026-03-31
06357,Niantic,CT,"Norwich-New London, CT",New London County,41.317659,-72.21856,509764,2695,9.04,6.34,3.02,-10.24,-1218,3913,127441,33.72,Glastonbury,CT,FALSE,FALSE,FALSE,2026-03-31,2026-03-31
06360,Norwich,CT,"Norwich-New London, CT",New London County,41.548006,-72.089454,293393,1759,5.92,7.2,3.76,-23.1,-1581,3340,73348,28.73,Glastonbury,CT,FALSE,FALSE,FALSE,2026-03-31,2026-03-31
06378,Stonington,CT,"Norwich-New London, CT",New London County,41.383211,-71.908408,757119,2773,6.37,4.4,1.32,-9.43,-1665,4438,189280,31.49,Warwick,RI,FALSE,FALSE,FALSE,2026-03-31,2026-03-31
06385,Waterford,CT,"Norwich-New London, CT",New London County,41.36173,-72.156576,426899,2000,5.83,5.62,2.39,-16.56,-1650,3650,106725,33.41,Glastonbury,CT,FALSE,FALSE,FALSE,2026-03-31,2026-03-31
06401,Ansonia,CT,"New Haven-Milford, CT",New Haven County,41.344249,-73.069825,374368,1692,4.63,5.42,2.22,-20.71,-1809,3500,93592,5.83,Shelton,CT,FALSE,FALSE,TRUE,2026-03-31,2026-03-31
06405,Branford,CT,"New Haven-Milford, CT",New Haven County,41.279949,-72.78595,451818,2413,6.28,6.41,3.08,-12.73,-1343,3755,112955,9.34,Hamden,CT,FALSE,FALSE,TRUE,2026-03-31,2026-03-31
06410,Cheshire,CT,"New Haven-Milford, CT",New Haven County,41.511827,-72.903617,528647,2394,4.88,5.43,2.23,-12.32,-1519,3913,132162,9.45,Hamden,CT,FALSE,FALSE,TRUE,2026-03-31,2026-03-31
06416,Cromwell,CT,"Hartford-East Hartford-Middletown, CT",Middlesex County,41.616609,-72.66156,369684,2552,4.85,8.28,4.71,-12.18,-1051,3602,92421,7.41,Glastonbury,CT,FALSE,FALSE,TRUE,2026-03-31,2026-03-31
06418,Derby,CT,"New Haven-Milford, CT",New Haven County,41.326124,-73.082574,336610,1983,4.76,7.07,3.65,-18.8,-1476,3460,84153,4.42,Shelton,CT,FALSE,TRUE,TRUE,2026-03-31,2026-03-31
06438,Haddam,CT,"Hartford-East Hartford-Middletown, CT",Middlesex County,41.450777,-72.509946,458296,2100,3.99,5.5,2.28,-15.22,-1628,3728,114574,18.74,Glastonbury,CT,FALSE,FALSE,FALSE,2026-03-31,2026-03-31
06450,Meriden,CT,"New Haven-Milford, CT",New Haven County,41.535812,-72.775686,310124,1728,3.81,6.69,3.32,-22.71,-1643,3371,77531,13,West Hartford,CT,FALSE,FALSE,FALSE,2026-03-31,2026-03-31
06451,Meriden,CT,"New Haven-Milford, CT",New Haven County,41.541906,-72.823409,324122,1573,5.61,5.82,2.57,-23.89,-1807,3380,81030,12.43,Hamden,CT,FALSE,FALSE,FALSE,2026-03-31,2026-03-31
06457,Middletown,CT,"Hartford-East Hartford-Middletown, CT",Middlesex County,41.544209,-72.657501,354763,2022,4.16,6.84,3.45,-17.88,-1480,3502,88691,12.07,Glastonbury,CT,FALSE,FALSE,FALSE,2026-03-31,2026-03-31
06460,Milford,CT,"New Haven-Milford, CT",New Haven County,41.218799,-73.045626,494384,2360,4.59,5.73,2.48,-12.81,-1477,3837,123596,2.61,Orange,CT,FALSE,TRUE,TRUE,2026-03-31,2026-03-31
06461,Milford,CT,"New Haven-Milford, CT",New Haven County,41.239865,-73.075394,489845,2850,3.62,6.98,3.57,-9.11,-1041,3891,122461,3.03,Orange,CT,FALSE,TRUE,TRUE,2026-03-31,2026-03-31
06483,Seymour,CT,"New Haven-Milford, CT",New Haven County,41.385466,-73.083641,410526,1900,6.1,5.55,2.33,-17.78,-1703,3603,102631,8.18,Shelton,CT,FALSE,FALSE,TRUE,2026-03-31,2026-03-31
06484,Shelton,CT,"Bridgeport-Stamford-Norwalk, CT",Fairfield County,41.304577,-73.139215,549225,2234,4.89,4.88,1.75,-13.27,-1701,3935,137306,2.36,Shelton,CT,FALSE,TRUE,TRUE,2026-03-31,2026-03-31
06489,Southington,CT,"Hartford-East Hartford-Middletown, CT",Hartford County,41.614168,-72.869915,437012,2000,4.85,5.49,2.28,-16.39,-1671,3671,109253,9.51,West Hartford,CT,FALSE,FALSE,TRUE,2026-03-31,2026-03-31
06492,Wallingford,CT,"New Haven-Milford, CT",New Haven County,41.462725,-72.805069,412632,1910,6.35,5.55,2.33,-17.64,-1699,3608,103158,8.26,Hamden,CT,FALSE,FALSE,TRUE,2026-03-31,2026-03-31
06510,New Haven,CT,"New Haven-Milford, CT",New Haven County,41.306193,-72.926613,388784,2338,0.03,7.22,3.78,-14.07,-1276,3614,97196,4.82,Hamden,CT,FALSE,TRUE,TRUE,2026-03-31,2026-03-31
06511,New Haven,CT,"New Haven-Milford, CT",New Haven County,41.31727,-72.926373,358448,2199,6.87,7.36,3.9,-15.95,-1334,3533,89612,4.06,Hamden,CT,FALSE,TRUE,TRUE,2026-03-31,2026-03-31
06512,East Haven,CT,"New Haven-Milford, CT",New Haven County,41.278267,-72.875251,353511,2036,3.3,6.91,3.51,-17.77,-1466,3502,88378,6.99,Hamden,CT,FALSE,FALSE,TRUE,2026-03-31,2026-03-31
06513,New Haven,CT,"New Haven-Milford, CT",New Haven County,41.318516,-72.869932,292920,1812,5.82,7.42,3.96,-22.45,-1534,3346,73230,4.53,Hamden,CT,FALSE,TRUE,TRUE,2026-03-31,2026-03-31
06514,Hamden,CT,"New Haven-Milford, CT",New Haven County,41.376803,-72.942752,338170,2174,5.73,7.71,4.21,-16.65,-1314,3488,84543,1.51,Hamden,CT,TRUE,TRUE,TRUE,2026-03-31,2026-03-31
06515,New Haven,CT,"New Haven-Milford, CT",New Haven County,41.328039,-72.97084,370184,1855,2.6,6.01,2.73,-19.19,-1658,3513,92546,4.41,Hamden,CT,FALSE,TRUE,TRUE,2026-03-31,2026-03-31
06516,West Haven,CT,"New Haven-Milford, CT",New Haven County,41.272573,-72.964967,354617,1980,6.11,6.7,3.33,-18.33,-1517,3497,88654,3.18,Orange,CT,FALSE,TRUE,TRUE,2026-03-31,2026-03-31
06517,Hamden,CT,"New Haven-Milford, CT",New Haven County,41.34944,-72.907149,383522,2425,6.4,7.59,4.1,-13.29,-1190,3615,95880,1.81,Hamden,CT,TRUE,TRUE,TRUE,2026-03-31,2026-03-31
06518,Hamden,CT,"New Haven-Milford, CT",New Haven County,41.430879,-72.91199,393395,2119,4.99,6.46,3.12,-16.08,-1476,3596,98349,3.85,Hamden,CT,FALSE,TRUE,TRUE,2026-03-31,2026-03-31
06519,New Haven,CT,"New Haven-Milford, CT",New Haven County,41.293122,-72.932102,295603,2401,9.42,9.74,5.98,-14.9,-1028,3428,73901,5.37,Orange,CT,FALSE,FALSE,TRUE,2026-03-31,2026-03-31
06604,Bridgeport,CT,"Bridgeport-Stamford-Norwalk, CT",Fairfield County,41.15438,-73.210932,331293,1903,7.25,6.89,3.5,-19.85,-1535,3438,82823,2.96,Fairfield,CT,FALSE,TRUE,TRUE,2026-03-31,2026-03-31
06605,Bridgeport,CT,"Bridgeport-Stamford-Norwalk, CT",Fairfield County,41.161599,-73.217622,372531,2136,4.5,6.88,3.49,-16.31,-1418,3554,93133,2.37,Fairfield,CT,FALSE,TRUE,TRUE,2026-03-31,2026-03-31
06606,Bridgeport,CT,"Bridgeport-Stamford-Norwalk, CT",Fairfield County,41.21211,-73.206673,387136,2454,4.5,7.61,4.12,-12.97,-1172,3626,96784,3.14,Fairfield,CT,FALSE,TRUE,TRUE,2026-03-31,2026-03-31
06607,Bridgeport,CT,"Bridgeport-Stamford-Norwalk, CT",Fairfield County,41.170744,-73.168038,295124,2003,11.81,8.14,4.59,-19.93,-1373,3376,73781,4.51,Fairfield,CT,FALSE,TRUE,TRUE,2026-03-31,2026-03-31
06608,Bridgeport,CT,"Bridgeport-Stamford-Norwalk, CT",Fairfield County,41.186475,-73.181251,290768,1890,11.31,7.8,4.29,-21.55,-1462,3352,72692,3.75,Fairfield,CT,FALSE,TRUE,TRUE,2026-03-31,2026-03-31
06610,Bridgeport,CT,"Bridgeport-Stamford-Norwalk, CT",Fairfield County,41.209221,-73.164656,290047,1983,7.84,8.21,4.64,-20.38,-1379,3363,72512,4.73,Shelton,CT,FALSE,TRUE,TRUE,2026-03-31,2026-03-31
06611,Trumbull,CT,"Bridgeport-Stamford-Norwalk, CT",Fairfield County,41.272891,-73.211899,664255,2651,5.46,4.79,1.67,-10.18,-1578,4229,166064,4.4,Shelton,CT,FALSE,TRUE,TRUE,2026-03-31,2026-03-31
06615,Stratford,CT,"Bridgeport-Stamford-Norwalk, CT",Fairfield County,41.163027,-73.128108,415545,2024,5.02,5.85,2.59,-16.55,-1605,3629,103886,6.65,Fairfield,CT,FALSE,FALSE,TRUE,2026-03-31,2026-03-31
06704,Waterbury,CT,"New Haven-Milford, CT",New Haven County,41.588739,-73.035267,257710,1529,1.61,7.12,3.69,-28.39,-1707,3236,64428,16.04,Hamden,CT,FALSE,FALSE,FALSE,2026-03-31,2026-03-31
06705,Waterbury,CT,"New Haven-Milford, CT",New Haven County,41.549741,-72.993435,259835,1694,3.02,7.82,4.3,-25.87,-1568,3262,64959,12.75,Hamden,CT,FALSE,FALSE,FALSE,2026-03-31,2026-03-31
06706,Waterbury,CT,"New Haven-Milford, CT",New Haven County,41.532209,-73.025052,274450,1350,4.28,5.9,2.64,-29.63,-1898,3248,68612,12.29,Hamden,CT,FALSE,FALSE,FALSE,2026-03-31,2026-03-31
06708,Waterbury,CT,"New Haven-Milford, CT",New Haven County,41.550619,-73.071234,297129,1670,2.83,6.75,3.37,-24.03,-1666,3337,74282,14.61,Hamden,CT,FALSE,FALSE,FALSE,2026-03-31,2026-03-31
06710,Waterbury,CT,"New Haven-Milford, CT",New Haven County,41.569601,-73.04596,295718,1488,-0.18,6.04,2.75,-26.41,-1822,3310,73930,15.08,Hamden,CT,FALSE,FALSE,FALSE,2026-03-31,2026-03-31
06770,Naugatuck,CT,"New Haven-Milford, CT",New Haven County,41.488649,-73.051751,346264,1748,4.21,6.06,2.77,-21.05,-1701,3449,86566,10.61,Hamden,CT,FALSE,FALSE,FALSE,2026-03-31,2026-03-31
06776,New Milford,CT,"Torrington, CT",Litchfield County,41.601267,-73.422807,458448,2044,3.31,5.35,2.15,-15.68,-1677,3721,114612,15.26,Danbury,CT,FALSE,FALSE,FALSE,2026-03-31,2026-03-31
06779,Watertown,CT,"Torrington, CT",Litchfield County,41.596057,-73.081442,332065,2095,1.47,7.57,4.09,-17.68,-1370,3465,83016,17.56,Hamden,CT,FALSE,FALSE,FALSE,2026-03-31,2026-03-31
06790,Torrington,CT,"Torrington, CT",Litchfield County,41.834072,-73.131409,294912,1597,4.63,6.5,3.15,-25.07,-1725,3322,73728,20.7,West Hartford,CT,FALSE,FALSE,FALSE,2026-03-31,2026-03-31
06810,Danbury,CT,"Bridgeport-Stamford-Norwalk, CT",Fairfield County,41.377849,-73.457463,450539,2545,2.89,6.78,3.4,-11.65,-1225,3770,112635,3.49,Danbury,CT,FALSE,TRUE,TRUE,2026-03-31,2026-03-31
06811,Danbury,CT,"Bridgeport-Stamford-Norwalk, CT",Fairfield County,41.422581,-73.478352,509901,2583,3.12,6.08,2.79,-11.05,-1315,3899,127475,3.02,Danbury,CT,FALSE,TRUE,TRUE,2026-03-31,2026-03-31
06820,Darien,CT,"Bridgeport-Stamford-Norwalk, CT",Fairfield County,41.076202,-73.48008,2317611,4846,12.06,2.51,-0.32,-5.76,-3113,7959,579403,1.11,Darien,CT,TRUE,TRUE,TRUE,2026-03-31,2026-03-31
06824,Fairfield,CT,"Bridgeport-Stamford-Norwalk, CT",Fairfield County,41.173039,-73.280818,1103452,3800,6.6,4.13,1.1,-5.8,-1493,5293,275863,1.6,Fairfield,CT,TRUE,TRUE,TRUE,2026-03-31,2026-03-31
06825,Fairfield,CT,"Bridgeport-Stamford-Norwalk, CT",Fairfield County,41.196583,-73.243254,729917,2731,6.95,4.49,1.41,-9.66,-1645,4376,182479,1.06,Fairfield,CT,TRUE,TRUE,TRUE,2026-03-31,2026-03-31
06830,Greenwich,CT,"Bridgeport-Stamford-Norwalk, CT",Fairfield County,41.037603,-73.624339,2424173,4031,10.36,2,-0.76,-7.15,-4044,8075,606043,6.25,Stamford,CT,FALSE,FALSE,TRUE,2026-03-31,2026-03-31
06831,Greenwich,CT,"Bridgeport-Stamford-Norwalk, CT",Fairfield County,41.088724,-73.658838,2093295,5955,12.29,3.41,0.47,-3.44,-1681,7636,523324,5.94,Stamford,CT,FALSE,FALSE,TRUE,2026-03-31,2026-03-31
06840,New Canaan,CT,"Bridgeport-Stamford-Norwalk, CT",Fairfield County,41.160393,-73.500124,2105011,6950,11.05,3.96,0.95,-1.71,-839,7789,526253,4.44,Stamford,CT,FALSE,TRUE,TRUE,2026-03-31,2026-03-31
06850,Norwalk,CT,"Bridgeport-Stamford-Norwalk, CT",Fairfield County,41.127423,-73.445264,627934,2655,3.85,5.07,1.91,-10.23,-1499,4154,156984,3.09,Darien,CT,FALSE,TRUE,TRUE,2026-03-31,2026-03-31
06851,Norwalk,CT,"Bridgeport-Stamford-Norwalk, CT",Fairfield County,41.138237,-73.401551,661580,2669,4.53,4.84,1.71,-10.09,-1557,4226,165395,2.58,Westport,CT,FALSE,TRUE,TRUE,2026-03-31,2026-03-31
06854,Norwalk,CT,"Bridgeport-Stamford-Norwalk, CT",Fairfield County,41.090896,-73.428788,561160,2701,6.34,5.78,2.53,-10.08,-1320,4021,140290,1.77,Darien,CT,TRUE,TRUE,TRUE,2026-03-31,2026-03-31
06855,Norwalk,CT,"Bridgeport-Stamford-Norwalk, CT",Fairfield County,41.07174,-73.390002,739902,2855,7.89,4.63,1.53,-9.02,-1558,4413,184975,3.84,Darien,CT,FALSE,TRUE,TRUE,2026-03-31,2026-03-31
06870,Greenwich,CT,"Bridgeport-Stamford-Norwalk, CT",Fairfield County,41.024446,-73.57115,2545198,18000,14.7,8.49,4.88,13.23,7857,10143,636299,5.83,Stamford,CT,FALSE,FALSE,TRUE,2026-03-31,2026-03-31
06877,Ridgefield,CT,"Bridgeport-Stamford-Norwalk, CT",Fairfield County,41.317675,-73.499837,978190,3538,7.21,4.34,1.28,-6.4,-1461,4998,244548,5.34,Danbury,CT,FALSE,FALSE,TRUE,2026-03-31,2026-03-31
06880,Westport,CT,"Bridgeport-Stamford-Norwalk, CT",Fairfield County,41.142752,-73.343614,1976816,7768,12.88,4.72,1.6,0.3,140,7629,494204,0.48,Westport,CT,TRUE,TRUE,TRUE,2026-03-31,2026-03-31
06897,Wilton,CT,"Bridgeport-Stamford-Norwalk, CT",Fairfield County,41.211277,-73.440977,1231493,4530,7.02,4.41,1.34,-3.92,-1125,5655,307873,6.77,Westport,CT,FALSE,FALSE,TRUE,2026-03-31,2026-03-31
06901,Stamford,CT,"Bridgeport-Stamford-Norwalk, CT",Fairfield County,41.053635,-73.538437,376809,2923,3.2,9.31,5.6,-8.45,-743,3665,94202,3.71,Stamford,CT,FALSE,TRUE,TRUE,2026-03-31,2026-03-31
06902,Stamford,CT,"Bridgeport-Stamford-Norwalk, CT",Fairfield County,41.059347,-73.544384,585814,2891,5.33,5.92,2.65,-8.82,-1205,4097,146454,3.29,Stamford,CT,FALSE,TRUE,TRUE,2026-03-31,2026-03-31
06905,Stamford,CT,"Bridgeport-Stamford-Norwalk, CT",Fairfield County,41.087781,-73.543575,737355,2536,6.72,4.13,1.09,-10.64,-1830,4366,184339,1.34,Stamford,CT,TRUE,TRUE,TRUE,2026-03-31,2026-03-31
06906,Stamford,CT,"Bridgeport-Stamford-Norwalk, CT",Fairfield County,41.072342,-73.522189,630129,2475,5.85,4.71,1.6,-11.29,-1660,4135,157532,2.72,Stamford,CT,FALSE,TRUE,TRUE,2026-03-31,2026-03-31
06907,Stamford,CT,"Bridgeport-Stamford-Norwalk, CT",Fairfield County,41.101431,-73.519581,690777,2700,7.61,4.69,1.58,-9.87,-1591,4291,172694,1.49,Stamford,CT,TRUE,TRUE,TRUE,2026-03-31,2026-03-31
07002,Bayonne,NJ,"New York-Newark-Jersey City, NY-NJ-PA",Hudson County,40.662495,-74.110201,582656,2389,1.81,4.92,1.78,-12.03,-1636,4025,145664,5.81,Staten Island,NY,FALSE,FALSE,TRUE,2026-03-31,2026-03-31
07003,Bloomfield,NJ,"New York-Newark-Jersey City, NY-NJ-PA",Essex County,40.809141,-74.187142,596402,2404,2.22,4.84,1.71,-11.87,-1651,4056,149101,2.66,Clifton,NJ,FALSE,TRUE,TRUE,2026-03-31,2026-03-31
07006,West Caldwell,NJ,"New York-Newark-Jersey City, NY-NJ-PA",Essex County,40.851187,-74.282865,838246,2701,4.82,3.87,0.86,-9.7,-1897,4598,209562,4.09,West Orange,NJ,FALSE,TRUE,TRUE,2026-03-31,2026-03-31
07008,Carteret,NJ,"New York-Newark-Jersey City, NY-NJ-PA",Middlesex County,40.58379,-74.227457,548064,2343,5.08,5.13,1.96,-12.54,-1604,3947,137016,3.26,Staten Island,NY,FALSE,TRUE,TRUE,2026-03-31,2026-03-31
07010,Cliffside Park,NJ,"New York-Newark-Jersey City, NY-NJ-PA",Bergen County,40.822052,-73.987938,645131,2652,3.12,4.93,1.79,-10.21,-1537,4189,161283,0.57,Edgewater,NJ,TRUE,TRUE,TRUE,2026-03-31,2026-03-31
07011,Clifton,NJ,"New York-Newark-Jersey City, NY-NJ-PA",Passaic County,40.880427,-74.143246,574754,2597,2.14,5.42,2.22,-10.72,-1438,4036,143689,3.06,Clifton,NJ,FALSE,TRUE,TRUE,2026-03-31,2026-03-31
07012,Clifton,NJ,"New York-Newark-Jersey City, NY-NJ-PA",Passaic County,40.846899,-74.160537,653759,2748,3.54,5.04,1.89,-9.65,-1472,4220,163440,0.86,Clifton,NJ,TRUE,TRUE,TRUE,2026-03-31,2026-03-31
07016,Cranford,NJ,"New York-Newark-Jersey City, NY-NJ-PA",Union County,40.65755,-74.303632,764357,3033,7.05,4.76,1.64,-8.15,-1454,4487,191089,2.46,Westfield,NJ,FALSE,TRUE,TRUE,2026-03-31,2026-03-31
07017,East Orange,NJ,"New York-Newark-Jersey City, NY-NJ-PA",Essex County,40.771918,-74.207082,483315,2112,-0.86,5.24,2.06,-14.81,-1670,3782,120829,3.51,West Orange,NJ,FALSE,TRUE,TRUE,2026-03-31,2026-03-31
07018,East Orange,NJ,"New York-Newark-Jersey City, NY-NJ-PA",Essex County,40.755733,-74.217917,463554,2102,-0.02,5.44,2.23,-15.14,-1637,3739,115888,3.68,West Orange,NJ,FALSE,TRUE,TRUE,2026-03-31,2026-03-31
07020,Edgewater,NJ,"New York-Newark-Jersey City, NY-NJ-PA",Bergen County,40.82465,-73.973793,714927,3849,4.87,6.46,3.12,-3.85,-642,4490,178732,0.4,Edgewater,NJ,TRUE,TRUE,TRUE,2026-03-31,2026-03-31
07022,Fairview,NJ,"New York-Newark-Jersey City, NY-NJ-PA",Bergen County,40.82111,-74.003032,654978,2245,6.35,4.11,1.08,-12.51,-1912,4157,163744,1.33,Edgewater,NJ,TRUE,TRUE,TRUE,2026-03-31,2026-03-31
07024,Fort Lee,NJ,"New York-Newark-Jersey City, NY-NJ-PA",Bergen County,40.85064,-73.971007,587690,3381,5.26,6.9,3.51,-5.71,-783,4164,146923,2.17,Edgewater,NJ,FALSE,TRUE,TRUE,2026-03-31,2026-03-31
07026,Garfield,NJ,"New York-Newark-Jersey City, NY-NJ-PA",Bergen County,40.879797,-74.10825,579887,2424,1.45,5.02,1.86,-11.82,-1600,4024,144972,3.74,Clifton,NJ,FALSE,TRUE,TRUE,2026-03-31,2026-03-31
07027,Garwood,NJ,"New York-Newark-Jersey City, NY-NJ-PA",Union County,40.651331,-74.323152,682410,2200,2.62,3.87,0.87,-12.61,-2008,4208,170602,1.41,Westfield,NJ,TRUE,TRUE,TRUE,2026-03-31,2026-03-31
07029,Harrison,NJ,"New York-Newark-Jersey City, NY-NJ-PA",Hudson County,40.74362,-74.154901,579706,2562,3.27,5.3,2.11,-10.94,-1480,4041,144927,6.42,Clifton,NJ,FALSE,FALSE,TRUE,2026-03-31,2026-03-31
07030,Hoboken,NJ,"New York-Newark-Jersey City, NY-NJ-PA",Hudson County,40.745251,-74.027926,854745,3867,-0.5,5.43,2.22,-4.6,-917,4784,213686,0.59,Hoboken,NJ,TRUE,TRUE,TRUE,2026-03-31,2026-03-31
07032,Kearny,NJ,"New York-Newark-Jersey City, NY-NJ-PA",Hudson County,40.752332,-74.123093,583850,2332,3.65,4.79,1.67,-12.39,-1688,4020,145962,4.88,Hoboken,NJ,FALSE,TRUE,TRUE,2026-03-31,2026-03-31
07036,Linden,NJ,"New York-Newark-Jersey City, NY-NJ-PA",Union County,40.624711,-74.239362,537183,2482,3.85,5.54,2.32,-11.65,-1461,3942,134296,4.56,Staten Island,NY,FALSE,TRUE,TRUE,2026-03-31,2026-03-31
07039,Livingston,NJ,"New York-Newark-Jersey City, NY-NJ-PA",Essex County,40.785828,-74.3291,1074622,4364,6.55,4.87,1.74,-3.76,-942,5307,268656,3.23,West Orange,NJ,FALSE,TRUE,TRUE,2026-03-31,2026-03-31
07040,Maplewood,NJ,"New York-Newark-Jersey City, NY-NJ-PA",Essex County,40.733607,-74.271159,935442,2983,5.34,3.83,0.83,-8.49,-1854,4837,233861,1.5,Millburn,NJ,TRUE,TRUE,TRUE,2026-03-31,2026-03-31
07041,Millburn,NJ,"New York-Newark-Jersey City, NY-NJ-PA",Essex County,40.722448,-74.301546,1250845,4650,8.4,4.46,1.38,-3.63,-1061,5711,312711,0.29,Millburn,NJ,TRUE,TRUE,TRUE,2026-03-31,2026-03-31
07042,Montclair,NJ,"New York-Newark-Jersey City, NY-NJ-PA",Essex County,40.813487,-74.219011,929121,2935,5.45,3.79,0.8,-8.68,-1882,4818,232280,2.93,West Orange,NJ,FALSE,TRUE,TRUE,2026-03-31,2026-03-31
07043,Montclair,NJ,"New York-Newark-Jersey City, NY-NJ-PA",Essex County,40.844837,-74.200502,1370131,3340,8.94,2.93,0.04,-7.66,-2449,5789,342533,2.63,Clifton,NJ,FALSE,TRUE,TRUE,2026-03-31,2026-03-31
07044,Verona,NJ,"New York-Newark-Jersey City, NY-NJ-PA",Essex County,40.832468,-74.242863,756745,3425,6.8,5.43,2.23,-6.21,-1097,4522,189186,3.03,West Orange,NJ,FALSE,TRUE,TRUE,2026-03-31,2026-03-31
07047,North Bergen Township,NJ,"New York-Newark-Jersey City, NY-NJ-PA",Hudson County,40.793644,-74.025027,581712,2823,1.61,5.82,2.57,-9.26,-1257,4079,145428,2.47,New York,NY,FALSE,TRUE,TRUE,2026-03-31,2026-03-31
07050,Orange,NJ,"New York-Newark-Jersey City, NY-NJ-PA",Essex County,40.76804,-74.235692,475588,1892,-0.32,4.77,1.65,-16.63,-1845,3737,118897,2.42,West Orange,NJ,FALSE,TRUE,TRUE,2026-03-31,2026-03-31
07052,West Orange,NJ,"New York-Newark-Jersey City, NY-NJ-PA",Essex County,40.785755,-74.265058,686462,2971,9.38,5.19,2.02,-8.4,-1346,4317,171615,0.53,West Orange,NJ,TRUE,TRUE,TRUE,2026-03-31,2026-03-31
07054,Parsippany,NJ,"New York-Newark-Jersey City, NY-NJ-PA",Morris County,40.853767,-74.401574,724322,2637,2.82,4.37,1.3,-10.15,-1716,4352,181080,4.5,Florham Park,NJ,FALSE,TRUE,TRUE,2026-03-31,2026-03-31
07055,Passaic,NJ,"New York-Newark-Jersey City, NY-NJ-PA",Passaic County,40.857552,-74.129089,553173,2271,1.89,4.93,1.79,-12.99,-1677,3948,138293,1.86,Clifton,NJ,TRUE,TRUE,TRUE,2026-03-31,2026-03-31
07058,Pine Brook,NJ,"New York-Newark-Jersey City, NY-NJ-PA",Morris County,40.869901,-74.344241,908047,2805,3.27,3.71,0.72,-9.21,-1952,4757,227012,6.1,Florham Park,NJ,FALSE,FALSE,TRUE,2026-03-31,2026-03-31
07059,Warren Township,NJ,"New York-Newark-Jersey City, NY-NJ-PA",Somerset County,40.634588,-74.519044,1121164,3196,4.52,3.42,0.48,-7.86,-2056,5252,280291,5.21,Bridgewater,NJ,FALSE,FALSE,TRUE,2026-03-31,2026-03-31
07060,Plainfield,NJ,"New York-Newark-Jersey City, NY-NJ-PA",Union County,40.616667,-74.422042,521837,2044,1.4,4.7,1.59,-14.86,-1809,3853,130459,4.51,Westfield,NJ,FALSE,TRUE,TRUE,2026-03-31,2026-03-31
07062,Plainfield,NJ,"New York-Newark-Jersey City, NY-NJ-PA",Union County,40.631253,-74.403884,498001,2175,3.89,5.24,2.06,-14.16,-1646,3821,124500,3.17,Westfield,NJ,FALSE,TRUE,TRUE,2026-03-31,2026-03-31
07065,Rahway,NJ,"New York-Newark-Jersey City, NY-NJ-PA",Union County,40.607152,-74.280531,529864,2512,1.65,5.69,2.45,-11.48,-1419,3931,132466,3.57,Iselin,NJ,FALSE,TRUE,TRUE,2026-03-31,2026-03-31
07070,Rutherford,NJ,"New York-Newark-Jersey City, NY-NJ-PA",Bergen County,40.820314,-74.106041,738676,2486,5.86,4.04,1.01,-10.89,-1876,4363,184669,2.62,Clifton,NJ,FALSE,TRUE,TRUE,2026-03-31,2026-03-31
07071,Lyndhurst,NJ,"New York-Newark-Jersey City, NY-NJ-PA",Bergen County,40.797113,-74.11298,641686,2540,4.13,4.75,1.63,-10.87,-1627,4168,160421,3.38,Clifton,NJ,FALSE,TRUE,TRUE,2026-03-31,2026-03-31
07073,East Rutherford,NJ,"New York-Newark-Jersey City, NY-NJ-PA",Bergen County,40.817097,-74.085024,635511,2851,5.2,5.38,2.18,-9.07,-1344,4195,158878,3.72,Clifton,NJ,FALSE,TRUE,TRUE,2026-03-31,2026-03-31
07075,Wood Ridge,NJ,"New York-Newark-Jersey City, NY-NJ-PA",Bergen County,40.850183,-74.087068,695204,2880,4.78,4.97,1.82,-8.9,-1444,4323,173801,3.49,Clifton,NJ,FALSE,TRUE,TRUE,2026-03-31,2026-03-31
07078,Short Hills,NJ,"New York-Newark-Jersey City, NY-NJ-PA",Essex County,40.742264,-74.327574,2305991,5215,7.16,2.71,-0.14,-5.14,-2767,7983,576498,2.12,Millburn,NJ,FALSE,TRUE,TRUE,2026-03-31,2026-03-31
07079,South Orange,NJ,"New York-Newark-Jersey City, NY-NJ-PA",Essex County,40.748811,-74.261512,1056720,3242,6.63,3.68,0.7,-7.63,-1881,5123,264180,2.54,Millburn,NJ,FALSE,TRUE,TRUE,2026-03-31,2026-03-31
07080,South Plainfield,NJ,"New York-Newark-Jersey City, NY-NJ-PA",Middlesex County,40.574413,-74.4148,583433,2556,7.1,5.26,2.07,-10.96,-1492,4048,145858,5.72,Iselin,NJ,FALSE,FALSE,TRUE,2026-03-31,2026-03-31
07081,Springfield,NJ,"New York-Newark-Jersey City, NY-NJ-PA",Union County,40.697966,-74.334436,702092,2498,3.31,4.27,1.21,-10.93,-1790,4288,175523,2.65,Millburn,NJ,FALSE,TRUE,TRUE,2026-03-31,2026-03-31
07083,Union,NJ,"New York-Newark-Jersey City, NY-NJ-PA",Union County,40.695266,-74.269078,575905,2640,5.53,5.5,2.29,-10.44,-1403,4043,143976,2.38,Millburn,NJ,FALSE,TRUE,TRUE,2026-03-31,2026-03-31
07086,Weehawken,NJ,"New York-Newark-Jersey City, NY-NJ-PA",Hudson County,40.76801,-74.017008,857907,3736,2.13,5.23,2.05,-5.18,-1038,4773,214477,1.2,Hoboken,NJ,TRUE,TRUE,TRUE,2026-03-31,2026-03-31
07087,Union City,NJ,"New York-Newark-Jersey City, NY-NJ-PA",Hudson County,40.767224,-74.032429,567879,2403,7.03,5.08,1.92,-12.02,-1593,3996,141970,0.95,Hoboken,NJ,TRUE,TRUE,TRUE,2026-03-31,2026-03-31
07088,Union,NJ,"New York-Newark-Jersey City, NY-NJ-PA",Union County,40.718342,-74.283764,460535,2900,-1.11,7.56,4.07,-8.72,-937,3837,115134,0.72,Millburn,NJ,TRUE,TRUE,TRUE,2026-03-31,2026-03-31
07090,Westfield,NJ,"New York-Newark-Jersey City, NY-NJ-PA",Union County,40.651644,-74.343447,1270834,2745,8.46,2.59,-0.25,-9.31,-2760,5505,317709,0.35,Westfield,NJ,TRUE,TRUE,TRUE,2026-03-31,2026-03-31
07093,West New York,NJ,"New York-Newark-Jersey City, NY-NJ-PA",Hudson County,40.786704,-74.008909,442362,2637,2.12,7.15,3.72,-10.93,-1128,3765,110591,1.5,New York,NY,TRUE,TRUE,TRUE,2026-03-31,2026-03-31
07094,Secaucus,NJ,"New York-Newark-Jersey City, NY-NJ-PA",Hudson County,40.781958,-74.067649,660107,2714,4.87,4.93,1.79,-9.83,-1514,4229,165027,2.78,Hoboken,NJ,FALSE,TRUE,TRUE,2026-03-31,2026-03-31
07095,Woodbridge,NJ,"New York-Newark-Jersey City, NY-NJ-PA",Middlesex County,40.552857,-74.286939,482692,2482,6.19,6.17,2.87,-11.95,-1346,3829,120673,1.19,Iselin,NJ,TRUE,TRUE,TRUE,2026-03-31,2026-03-31
07102,Newark,NJ,"New York-Newark-Jersey City, NY-NJ-PA",Essex County,40.735659,-74.173605,405348,2499,-5.69,7.4,3.94,-12.38,-1171,3670,101337,6.34,West Orange,NJ,FALSE,FALSE,TRUE,2026-03-31,2026-03-31
07103,Newark,NJ,"New York-Newark-Jersey City, NY-NJ-PA",Essex County,40.738852,-74.195264,392619,2156,1.65,6.59,3.23,-15.75,-1442,3599,98155,5.34,West Orange,NJ,FALSE,FALSE,TRUE,2026-03-31,2026-03-31
07104,Newark,NJ,"New York-Newark-Jersey City, NY-NJ-PA",Essex County,40.767713,-74.16835,490341,2004,-1.62,4.9,1.77,-15.55,-1779,3783,122585,4.84,Clifton,NJ,FALSE,TRUE,TRUE,2026-03-31,2026-03-31
07105,Newark,NJ,"New York-Newark-Jersey City, NY-NJ-PA",Essex County,40.723066,-74.138636,570222,2249,0.09,4.73,1.62,-13.01,-1732,3981,142556,6.07,Hoboken,NJ,FALSE,FALSE,TRUE,2026-03-31,2026-03-31
07106,Newark,NJ,"New York-Newark-Jersey City, NY-NJ-PA",Essex County,40.741768,-74.230452,460040,2110,0.05,5.5,2.29,-15.13,-1624,3733,115010,3.68,Millburn,NJ,FALSE,TRUE,TRUE,2026-03-31,2026-03-31
07107,Newark,NJ,"New York-Newark-Jersey City, NY-NJ-PA",Essex County,40.762918,-74.186559,513383,1998,-2.13,4.67,1.56,-15.29,-1831,3830,128346,4.75,West Orange,NJ,FALSE,TRUE,TRUE,2026-03-31,2026-03-31
07108,Newark,NJ,"New York-Newark-Jersey City, NY-NJ-PA",Essex County,40.723104,-74.200386,492243,2079,-1.38,5.07,1.91,-14.95,-1718,3796,123061,5.01,Millburn,NJ,FALSE,FALSE,TRUE,2026-03-31,2026-03-31
07109,Belleville,NJ,"New York-Newark-Jersey City, NY-NJ-PA",Essex County,40.793481,-74.161159,514815,2151,4.11,5.01,1.86,-14.17,-1702,3853,128704,3.02,Clifton,NJ,FALSE,TRUE,TRUE,2026-03-31,2026-03-31
07110,Nutley,NJ,"New York-Newark-Jersey City, NY-NJ-PA",Essex County,40.820616,-74.15625,654892,2456,4.06,4.5,1.41,-11.31,-1728,4184,163723,1.13,Clifton,NJ,TRUE,TRUE,TRUE,2026-03-31,2026-03-31
07111,Irvington,NJ,"New York-Newark-Jersey City, NY-NJ-PA",Essex County,40.723859,-74.232522,415675,1972,5.27,5.69,2.45,-17.02,-1651,3623,103919,3.33,Millburn,NJ,FALSE,TRUE,TRUE,2026-03-31,2026-03-31
07112,Newark,NJ,"New York-Newark-Jersey City, NY-NJ-PA",Essex County,40.711391,-74.211683,482763,2086,0.99,5.19,2.01,-15.01,-1691,3777,120691,4.5,Millburn,NJ,FALSE,TRUE,TRUE,2026-03-31,2026-03-31
07114,Newark,NJ,"New York-Newark-Jersey City, NY-NJ-PA",Essex County,40.697812,-74.17081,471318,1929,-3.59,4.91,1.77,-16.41,-1804,3733,117829,6.79,Millburn,NJ,FALSE,FALSE,TRUE,2026-03-31,2026-03-31
07201,Elizabeth,NJ,"New York-Newark-Jersey City, NY-NJ-PA",Union County,40.671272,-74.177358,499693,2340,3.61,5.62,2.39,-12.91,-1506,3846,124923,5.67,Staten Island,NY,FALSE,FALSE,TRUE,2026-03-31,2026-03-31
07202,Elizabeth,NJ,"New York-Newark-Jersey City, NY-NJ-PA",Union County,40.652464,-74.216853,499138,2077,2.18,4.99,1.84,-14.88,-1733,3810,124785,5.1,Staten Island,NY,FALSE,FALSE,TRUE,2026-03-31,2026-03-31
07203,Roselle,NJ,"New York-Newark-Jersey City, NY-NJ-PA",Union County,40.652211,-74.260158,507475,2393,2.37,5.66,2.42,-12.46,-1476,3869,126869,4.71,Westfield,NJ,FALSE,TRUE,TRUE,2026-03-31,2026-03-31
07204,Roselle Park,NJ,"New York-Newark-Jersey City, NY-NJ-PA",Union County,40.665312,-74.266555,537979,2568,0.8,5.73,2.48,-11.05,-1388,3955,134495,4.28,Millburn,NJ,FALSE,TRUE,TRUE,2026-03-31,2026-03-31
07205,Hillside,NJ,"New York-Newark-Jersey City, NY-NJ-PA",Union County,40.695889,-74.2288,514004,3800,0.06,8.87,5.22,-2.21,-266,4065,128501,3.99,Millburn,NJ,FALSE,TRUE,TRUE,2026-03-31,2026-03-31
07206,Elizabeth,NJ,"New York-Newark-Jersey City, NY-NJ-PA",Union County,40.652083,-74.183756,504083,2374,3.17,5.65,2.42,-12.63,-1485,3859,126021,4.42,Staten Island,NY,FALSE,TRUE,TRUE,2026-03-31,2026-03-31
07302,Jersey City,NJ,"New York-Newark-Jersey City, NY-NJ-PA",Hudson County,40.718808,-74.044634,890892,3733,0.69,5.03,1.87,-5.33,-1109,4842,222723,2.14,New York,NY,FALSE,TRUE,TRUE,2026-03-31,2026-03-31
07304,Jersey City,NJ,"New York-Newark-Jersey City, NY-NJ-PA",Hudson County,40.717303,-74.076352,542048,2374,0.58,5.26,2.07,-12.37,-1564,3938,135512,3.5,Hoboken,NJ,FALSE,TRUE,TRUE,2026-03-31,2026-03-31
07305,Jersey City,NJ,"New York-Newark-Jersey City, NY-NJ-PA",Hudson County,40.693004,-74.06965,526785,2329,-1.96,5.31,2.12,-12.78,-1571,3901,131696,4.03,Brooklyn,NY,FALSE,TRUE,TRUE,2026-03-31,2026-03-31
07306,Jersey City,NJ,"New York-Newark-Jersey City, NY-NJ-PA",Hudson County,40.736294,-74.071128,547535,2572,0.32,5.64,2.4,-10.99,-1404,3976,136884,2.47,Hoboken,NJ,FALSE,TRUE,TRUE,2026-03-31,2026-03-31
07307,Jersey City,NJ,"New York-Newark-Jersey City, NY-NJ-PA",Hudson County,40.751842,-74.053976,747787,2557,0.85,4.1,1.07,-10.51,-1834,4391,186947,1.26,Hoboken,NJ,TRUE,TRUE,TRUE,2026-03-31,2026-03-31
07310,Jersey City,NJ,"New York-Newark-Jersey City, NY-NJ-PA",Hudson County,40.727895,-74.033212,928927,4258,-4.46,5.5,2.28,-3.38,-732,4989,232232,1.5,New York,NY,TRUE,TRUE,TRUE,2026-01-31,2026-03-31
07401,Allendale,NJ,"New York-Newark-Jersey City, NY-NJ-PA",Bergen County,41.032669,-74.133826,1074425,4238,6.06,4.73,1.62,-4.2,-1052,5290,268606,5.79,Westwood,NJ,FALSE,FALSE,TRUE,2026-03-31,2026-03-31
07407,Elmwood Park,NJ,"New York-Newark-Jersey City, NY-NJ-PA",Bergen County,40.904526,-74.119514,616967,2404,3.78,4.68,1.57,-11.77,-1694,4098,154242,3.96,Paramus,NJ,FALSE,TRUE,TRUE,2026-03-31,2026-03-31
07410,Fair Lawn,NJ,"New York-Newark-Jersey City, NY-NJ-PA",Bergen County,40.93583,-74.117505,709806,3374,5.6,5.7,2.46,-6.3,-1044,4418,177452,2.6,Paramus,NJ,FALSE,TRUE,TRUE,2026-03-31,2026-03-31
07424,Woodland Park,NJ,"New York-Newark-Jersey City, NY-NJ-PA",Passaic County,40.882319,-74.205876,634242,2488,3.43,4.71,1.6,-11.2,-1657,4145,158561,4.26,Clifton,NJ,FALSE,TRUE,TRUE,2026-03-31,2026-03-31
07430,Mahwah Township,NJ,"New York-Newark-Jersey City, NY-NJ-PA",Bergen County,41.082067,-74.183061,713158,2778,4.94,4.67,1.57,-9.43,-1570,4347,178290,8.84,Wayne,NJ,FALSE,FALSE,TRUE,2026-03-31,2026-03-31
07432,Midland Park,NJ,"New York-Newark-Jersey City, NY-NJ-PA",Bergen County,40.995809,-74.141262,731559,2712,4.56,4.45,1.37,-9.75,-1665,4377,182890,4.94,Paramus,NJ,FALSE,TRUE,TRUE,2026-03-31,2026-03-31
07442,Pompton Lakes,NJ,"New York-Newark-Jersey City, NY-NJ-PA",Passaic County,41.002734,-74.286742,547984,2750,3.77,6.02,2.74,-9.77,-1250,4000,136996,4.2,Wayne,NJ,FALSE,TRUE,TRUE,2026-03-31,2026-03-31
07450,Ridgewood,NJ,"New York-Newark-Jersey City, NY-NJ-PA",Bergen County,40.981591,-74.113506,1199701,3762,8.01,3.76,0.77,-6.17,-1726,5489,299925,3.21,Paramus,NJ,FALSE,TRUE,TRUE,2026-03-31,2026-03-31
07457,Riverdale,NJ,"New York-Newark-Jersey City, NY-NJ-PA",Morris County,40.995886,-74.314532,484367,3076,4.2,7.62,4.13,-7.37,-833,3909,121092,5.06,Wayne,NJ,FALSE,FALSE,TRUE,2026-03-31,2026-03-31
07470,Wayne,NJ,"New York-Newark-Jersey City, NY-NJ-PA",Passaic County,40.945855,-74.245077,742809,2491,5.44,4.02,1,-10.85,-1881,4372,185702,1.2,Wayne,NJ,TRUE,TRUE,TRUE,2026-03-31,2026-03-31
07480,West Milford,NJ,"New York-Newark-Jersey City, NY-NJ-PA",Passaic County,41.08587,-74.37839,482132,2700,2.18,6.72,3.35,-10.27,-1156,3856,120533,11.66,Wayne,NJ,FALSE,FALSE,FALSE,2026-03-31,2026-03-31
07501,Paterson,NJ,"New York-Newark-Jersey City, NY-NJ-PA",Passaic County,40.911998,-74.170965,474301,1992,-0.94,5.04,1.88,-15.86,-1755,3748,118575,4.51,Wayne,NJ,FALSE,TRUE,TRUE,2026-03-31,2026-03-31
07504,Paterson,NJ,"New York-Newark-Jersey City, NY-NJ-PA",Passaic County,40.912433,-74.140689,572291,2200,4.91,4.61,1.51,-13.32,-1779,3979,143073,4.42,Paramus,NJ,FALSE,TRUE,TRUE,2026-03-31,2026-03-31
07506,Hawthorne,NJ,"New York-Newark-Jersey City, NY-NJ-PA",Passaic County,40.956957,-74.158561,628595,2339,5.73,4.46,1.38,-12.1,-1775,4114,157149,3.75,Wayne,NJ,FALSE,TRUE,TRUE,2026-03-31,2026-03-31
07508,North Haledon,NJ,"New York-Newark-Jersey City, NY-NJ-PA",Passaic County,40.955021,-74.183692,632381,2666,6.46,5.06,1.9,-10.16,-1499,4164,158095,2.46,Wayne,NJ,FALSE,TRUE,TRUE,2026-03-31,2026-03-31
07522,Paterson,NJ,"New York-Newark-Jersey City, NY-NJ-PA",Passaic County,40.923569,-74.179225,480764,2000,2.38,4.99,1.84,-15.71,-1762,3762,120191,3.64,Wayne,NJ,FALSE,TRUE,TRUE,2026-03-31,2026-03-31
07524,Paterson,NJ,"New York-Newark-Jersey City, NY-NJ-PA",Passaic County,40.931711,-74.15687,530807,2113,2.8,4.78,1.66,-14.27,-1768,3881,132702,4.28,Wayne,NJ,FALSE,TRUE,TRUE,2026-03-31,2026-03-31
07601,Hackensack,NJ,"New York-Newark-Jersey City, NY-NJ-PA",Bergen County,40.889398,-74.045698,464947,2599,3.34,6.71,3.34,-11.13,-1208,3807,116237,4.27,Paramus,NJ,FALSE,TRUE,TRUE,2026-03-31,2026-03-31
07631,Englewood,NJ,"New York-Newark-Jersey City, NY-NJ-PA",Bergen County,40.891197,-73.972515,610661,3179,0.65,6.25,2.93,-7.07,-1007,4186,152665,4.95,Edgewater,NJ,FALSE,TRUE,TRUE,2026-03-31,2026-03-31
07643,Little Ferry,NJ,"New York-Newark-Jersey City, NY-NJ-PA",Bergen County,40.843431,-74.034239,584188,2675,4.1,5.49,2.28,-10.2,-1390,4065,146047,3.39,Edgewater,NJ,FALSE,TRUE,TRUE,2026-03-31,2026-03-31
07644,Lodi,NJ,"New York-Newark-Jersey City, NY-NJ-PA",Bergen County,40.877915,-74.0825,619182,2365,5.88,4.58,1.49,-12,-1733,4098,154796,4.59,Clifton,NJ,FALSE,TRUE,TRUE,2026-03-31,2026-03-31
07645,Montvale,NJ,"New York-Newark-Jersey City, NY-NJ-PA",Bergen County,41.054594,-74.047298,921612,3351,5.3,4.36,1.3,-7,-1505,4856,230403,4.28,Westwood,NJ,FALSE,TRUE,TRUE,2026-03-31,2026-03-31
07650,Palisades Park,NJ,"New York-Newark-Jersey City, NY-NJ-PA",Bergen County,40.847017,-73.997061,983980,3141,9.71,3.83,0.83,-7.92,-1818,4959,245995,2.15,Edgewater,NJ,FALSE,TRUE,TRUE,2026-03-31,2026-03-31
07656,Park Ridge,NJ,"New York-Newark-Jersey City, NY-NJ-PA",Bergen County,41.036183,-74.044293,843345,3258,4.13,4.64,1.53,-7.23,-1423,4681,210836,3,Westwood,NJ,FALSE,TRUE,TRUE,2026-03-31,2026-03-31
07657,Ridgefield,NJ,"New York-Newark-Jersey City, NY-NJ-PA",Bergen County,40.832677,-74.014088,779169,2912,7.41,4.48,1.4,-8.75,-1590,4502,194792,2.11,Edgewater,NJ,FALSE,TRUE,TRUE,2026-03-31,2026-03-31
07661,River Edge,NJ,"New York-Newark-Jersey City, NY-NJ-PA",Bergen County,40.927354,-74.039611,839672,2312,10.72,3.3,0.38,-11.42,-2238,4550,209918,2.17,Paramus,NJ,FALSE,TRUE,TRUE,2026-03-31,2026-03-31
07663,Saddle Brook,NJ,"New York-Newark-Jersey City, NY-NJ-PA",Bergen County,40.903099,-74.093591,661348,2605,4.5,4.73,1.61,-10.45,-1612,4217,165337,3.35,Paramus,NJ,FALSE,TRUE,TRUE,2026-03-31,2026-03-31
07666,Teaneck,NJ,"New York-Newark-Jersey City, NY-NJ-PA",Bergen County,40.890317,-74.011478,682809,3294,1.65,5.79,2.54,-6.64,-1057,4351,170702,5.06,Paramus,NJ,FALSE,FALSE,TRUE,2026-03-31,2026-03-31
07670,Tenafly,NJ,"New York-Newark-Jersey City, NY-NJ-PA",Bergen County,40.918309,-73.950523,1260435,6100,6.19,5.81,2.55,0.61,181,5919,315109,6.6,Paramus,NJ,FALSE,FALSE,TRUE,2026-03-31,2026-03-31
07675,River Vale,NJ,"New York-Newark-Jersey City, NY-NJ-PA",Bergen County,41.003484,-74.001753,898964,3587,6.38,4.79,1.67,-5.97,-1253,4840,224741,1.92,Westwood,NJ,TRUE,TRUE,TRUE,2026-03-31,2026-03-31
07701,Red Bank,NJ,"New York-Newark-Jersey City, NY-NJ-PA",Monmouth County,40.360509,-74.078952,691276,3043,6.36,5.28,2.1,-8.02,-1293,4336,172819,3.16,Shrewsbury,NJ,FALSE,TRUE,TRUE,2026-03-31,2026-03-31
07712,Ocean,NJ,"New York-Newark-Jersey City, NY-NJ-PA",Monmouth County,40.246895,-74.054502,737176,2615,2.75,4.26,1.2,-10.24,-1761,4376,184294,4.84,Shrewsbury,NJ,FALSE,TRUE,TRUE,2026-03-31,2026-03-31
07716,Atlantic Highlands,NJ,"New York-Newark-Jersey City, NY-NJ-PA",Monmouth County,40.402402,-74.036306,804352,2450,3.9,3.66,0.68,-10.89,-2045,4495,201088,4.53,Middletown Township,NJ,FALSE,TRUE,TRUE,2026-03-31,2026-03-31
07719,Wall,NJ,"New York-Newark-Jersey City, NY-NJ-PA",Monmouth County,40.168908,-74.073226,806891,3336,3.16,4.96,1.82,-6.79,-1279,4615,201723,8.5,Brick,NJ,FALSE,FALSE,TRUE,2026-03-31,2026-03-31
